[
  {
    "學校名稱": "私立育才國小",
    "公/私立": "私立",
    "縣市名稱": "[01]新北市",
    "地址": "[234]新北市永和區福和路125巷20號",
    "電話": "(02)29214630",
    "網址": "https://www.ytes.ntpc.edu.tw",
    "備註": "",
    "latitude": 25.0074933,
    "longitude": 121.5216217
  },
  {
    "學校名稱": "私立聖心國小",
    "公/私立": "私立",
    "縣市名稱": "[01]新北市",
    "地址": "[249]新北市八里區龍米路一段261號",
    "電話": "(02)26182330",
    "網址": "https://lshes.com",
    "備註": "",
    "latitude": 25.1390681,
    "longitude": 121.4489498
  },
  {
    "學校名稱": "私立及人國小",
    "公/私立": "私立",
    "縣市名稱": "[01]新北市",
    "地址": "[234]新北市永和區文化路172號",
    "電話": "(02)29212145",
    "網址": "https://www.cjps.ntpc.edu.tw",
    "備註": "",
    "latitude": 25.0168692,
    "longitude": 121.5098381
  },
  {
    "學校名稱": "私立竹林國小",
    "公/私立": "私立",
    "縣市名稱": "[01]新北市",
    "地址": "[234]新北市永和區竹林路34號",
    "電話": "(02)29243919",
    "網址": "https://www.clse.ntpc.edu.tw",
    "備註": "",
    "latitude": 25.0123122,
    "longitude": 121.519561
  },
  {
    "學校名稱": "私立信賢種籽親子實小",
    "公/私立": "私立",
    "縣市名稱": "[01]新北市",
    "地址": "[233]新北市烏來區信賢里娃娃谷41號",
    "電話": "(02)26616648",
    "網址": "https://seedling.tw",
    "備註": "",
    "latitude": 24.8389601,
    "longitude": 121.5286601
  },
  {
    "學校名稱": "市立北大國小",
    "公/私立": "公立",
    "縣市名稱": "[01]新北市",
    "地址": "[237]新北市三峽區國光街100號",
    "電話": "(02)86716836",
    "網址": "https://www.bdes.ntpc.edu.tw",
    "備註": "",
    "latitude": 24.938648,
    "longitude": 121.3737322
  },
  {
    "學校名稱": "市立新林國小",
    "公/私立": "公立",
    "縣市名稱": "[01]新北市",
    "地址": "[244]新北市林口區三民路101號",
    "電話": "(02)26086521",
    "網址": "https://www.xles.ntpc.edu.tw",
    "備註": "",
    "latitude": 25.0775308,
    "longitude": 121.3916021
  },
  {
    "學校名稱": "市立淡海國小",
    "公/私立": "公立",
    "縣市名稱": "[01]新北市",
    "地址": "[251]新北市淡水區新市二路二段81號",
    "電話": "(02)28051698",
    "網址": "https://www.dhps.ntpc.edu.tw",
    "備註": "",
    "latitude": 25.1947729,
    "longitude": 121.4294285
  },
  {
    "學校名稱": "市立東湖國小",
    "公/私立": "公立",
    "縣市名稱": "[01]新北市",
    "地址": "[244]新北市林口區佳林路200號",
    "電話": "(02)26098195",
    "網址": "https://www.dhes.ntpc.edu.tw/",
    "備註": "",
    "latitude": 25.0822781,
    "longitude": 121.3869641
  },
  {
    "學校名稱": "市立板橋國小",
    "公/私立": "公立",
    "縣市名稱": "[01]新北市",
    "地址": "[220]新北市板橋區黃石里文化路一段23號",
    "電話": "(02)29686834",
    "網址": "https://www.pcps.ntpc.edu.tw",
    "備註": "",
    "latitude": 25.0123156,
    "longitude": 121.4585331
  },
  {
    "學校名稱": "市立國光國小",
    "公/私立": "公立",
    "縣市名稱": "[01]新北市",
    "地址": "[220]新北市板橋區中正路325巷30號",
    "電話": "(02)29680612",
    "網址": "https://www.kkes.ntpc.edu.tw",
    "備註": "",
    "latitude": 25.0194237,
    "longitude": 121.4535604
  },
  {
    "學校名稱": "市立新埔國小",
    "公/私立": "公立",
    "縣市名稱": "[01]新北市",
    "地址": "[220]新北市板橋區新翠里陽明街206號",
    "電話": "(02)22571830",
    "網址": "https://www.spes.ntpc.edu.tw",
    "備註": "",
    "latitude": 25.0265432,
    "longitude": 121.4626588
  },
  {
    "學校名稱": "市立埔墘國小",
    "公/私立": "公立",
    "縣市名稱": "[01]新北市",
    "地址": "[220]新北市板橋區永豐街42之8號",
    "電話": "(02)29616690",
    "網址": "https://www.pces.ntpc.edu.tw",
    "備註": "",
    "latitude": 25.020814,
    "longitude": 121.476238
  },
  {
    "學校名稱": "市立莒光國小",
    "公/私立": "公立",
    "縣市名稱": "[01]新北市",
    "地址": "[220]新北市板橋區華翠里莒光路163號",
    "電話": "(02)22517272",
    "網址": "https://www.jges.ntpc.edu.tw",
    "備註": "",
    "latitude": 25.0241318,
    "longitude": 121.4739048
  },
  {
    "學校名稱": "市立後埔國小",
    "公/私立": "公立",
    "縣市名稱": "[01]新北市",
    "地址": "[220]新北市板橋區重慶路157號",
    "電話": "(02)29614142",
    "網址": "https://www.hpes.ntpc.edu.tw",
    "備註": "",
    "latitude": 24.9971367,
    "longitude": 121.464224
  },
  {
    "學校名稱": "市立海山國小",
    "公/私立": "公立",
    "縣市名稱": "[01]新北市",
    "地址": "[220]新北市板橋區漢生東路280號",
    "電話": "(02)29545725",
    "網址": "https://www.hsps.ntpc.edu.tw",
    "備註": "",
    "latitude": 25.0154207,
    "longitude": 121.4668535
  },
  {
    "學校名稱": "市立江翠國小",
    "公/私立": "公立",
    "縣市名稱": "[01]新北市",
    "地址": "[220]新北市板橋區松翠里文化路二段413號",
    "電話": "(02)22526880",
    "網址": "https://www.ctes.ntpc.edu.tw",
    "備註": "",
    "latitude": 25.0313552,
    "longitude": 121.4736926
  },
  {
    "學校名稱": "市立文聖國小",
    "公/私立": "公立",
    "縣市名稱": "[01]新北市",
    "地址": "[220]新北市板橋區文聖街86號",
    "電話": "(02)22530782",
    "網址": "https://www.wses.ntpc.edu.tw",
    "備註": "",
    "latitude": 25.0298617,
    "longitude": 121.4775426
  },
  {
    "學校名稱": "市立沙崙國小",
    "公/私立": "公立",
    "縣市名稱": "[01]新北市",
    "地址": "[220]新北市板橋區篤行路二段132號",
    "電話": "(02)26812764",
    "網址": "https://www.sles.ntpc.edu.tw",
    "備註": "",
    "latitude": 24.9895116,
    "longitude": 121.4306172
  },
  {
    "學校名稱": "市立文德國小",
    "公/私立": "公立",
    "縣市名稱": "[01]新北市",
    "地址": "[220]新北市板橋區新翠里英士路179號",
    "電話": "(02)22577193",
    "網址": "https://www.wdps.ntpc.edu.tw",
    "備註": "",
    "latitude": 25.0224335,
    "longitude": 121.4588391
  },
  {
    "學校名稱": "市立樹林國小",
    "公/私立": "公立",
    "縣市名稱": "[01]新北市",
    "地址": "[238]新北市樹林區樹西里育英街176號",
    "電話": "(02)26812014",
    "網址": "https://www.slps.ntpc.edu.tw",
    "備註": "",
    "latitude": 24.9892814,
    "longitude": 121.4204851
  },
  {
    "學校名稱": "市立文林國小",
    "公/私立": "公立",
    "縣市名稱": "[01]新北市",
    "地址": "[238]新北市樹林區潭底里千歲街59號",
    "電話": "(02)26812625",
    "網址": "https://www.twles.ntpc.edu.tw",
    "備註": "",
    "latitude": 24.9982496,
    "longitude": 121.4267559
  },
  {
    "學校名稱": "市立大同國小",
    "公/私立": "公立",
    "縣市名稱": "[01]新北市",
    "地址": "[238]新北市樹林區大同里大同街43號",
    "電話": "(02)86865486",
    "網址": "https://www.ttps.ntpc.edu.tw",
    "備註": "",
    "latitude": 24.9827379,
    "longitude": 121.4184623
  },
  {
    "學校名稱": "市立武林國小",
    "公/私立": "公立",
    "縣市名稱": "[01]新北市",
    "地址": "[238]新北市樹林區保安街二段151號",
    "電話": "(02)26812475",
    "網址": "https://www.wles.ntpc.edu.tw",
    "備註": "",
    "latitude": 25.0084288,
    "longitude": 121.4125099
  },
  {
    "學校名稱": "市立山佳國小",
    "公/私立": "公立",
    "縣市名稱": "[01]新北市",
    "地址": "[238]新北市樹林區中山路三段5號",
    "電話": "(02)26806673",
    "網址": "https://www.sjes.ntpc.edu.tw",
    "備註": "",
    "latitude": 24.9732048,
    "longitude": 121.3963962
  },
  {
    "學校名稱": "市立育德國小",
    "公/私立": "公立",
    "縣市名稱": "[01]新北市",
    "地址": "[238]新北市樹林區中山里佳園路一段34號",
    "電話": "(02)26805557",
    "網址": "https://www.ytps.ntpc.edu.tw",
    "備註": "",
    "latitude": 24.9710641,
    "longitude": 121.3929018
  },
  {
    "學校名稱": "市立柑園國小",
    "公/私立": "公立",
    "縣市名稱": "[01]新北市",
    "地址": "[238]新北市樹林區柑園街一段353號",
    "電話": "(02)26802507",
    "網址": "https://www.gyes.ntpc.edu.tw",
    "備註": "",
    "latitude": 24.9584163,
    "longitude": 121.4003543
  },
  {
    "學校名稱": "市立鶯歌國小",
    "公/私立": "公立",
    "縣市名稱": "[01]新北市",
    "地址": "[239]新北市鶯歌區同慶里尖山埔路106號",
    "電話": "(02)26792038",
    "網址": "https://www.ykes.ntpc.edu.tw",
    "備註": "",
    "latitude": 24.9516273,
    "longitude": 121.3458146
  },
  {
    "學校名稱": "市立二橋國小",
    "公/私立": "公立",
    "縣市名稱": "[01]新北市",
    "地址": "[239]新北市鶯歌區二橋里中正三路106號",
    "電話": "(02)26792364",
    "網址": "https://www.eqes.ntpc.edu.tw",
    "備註": "",
    "latitude": 24.9599449,
    "longitude": 121.3537712
  },
  {
    "學校名稱": "市立中湖國小",
    "公/私立": "公立",
    "縣市名稱": "[01]新北市",
    "地址": "[239]新北市鶯歌區中湖里中湖街25號",
    "電話": "(02)86775640",
    "網址": "https://www.chues.ntpc.edu.tw",
    "備註": "",
    "latitude": 24.977891,
    "longitude": 121.3472013
  },
  {
    "學校名稱": "市立鳳鳴國小",
    "公/私立": "公立",
    "縣市名稱": "[01]新北市",
    "地址": "[239]新北市鶯歌區鳳鳴里永和街120號",
    "電話": "(02)26797554",
    "網址": "https://www.fmes.ntpc.edu.tw",
    "備註": "",
    "latitude": 24.9684797,
    "longitude": 121.3337485
  },
  {
    "學校名稱": "市立三峽國小",
    "公/私立": "公立",
    "縣市名稱": "[01]新北市",
    "地址": "[237]新北市三峽區中山路16號",
    "電話": "(02)26711018",
    "網址": "https://www.shps.ntpc.edu.tw",
    "備註": "",
    "latitude": 24.9370777,
    "longitude": 121.3586572
  },
  {
    "學校名稱": "市立大埔國小",
    "公/私立": "公立",
    "縣市名稱": "[01]新北市",
    "地址": "[237]新北市三峽區大埔路130號",
    "電話": "(02)26712523",
    "網址": "https://www.tpps.ntpc.edu.tw",
    "備註": "",
    "latitude": 24.8977508,
    "longitude": 121.3705958
  },
  {
    "學校名稱": "市立民義國小",
    "公/私立": "公立",
    "縣市名稱": "[01]新北市",
    "地址": "[237]新北市三峽區嘉添里白雞路40號",
    "電話": "(02)26711895",
    "網址": "https://www.myes.ntpc.edu.tw/",
    "備註": "",
    "latitude": 24.9123258,
    "longitude": 121.375336
  },
  {
    "學校名稱": "市立成福國小",
    "公/私立": "公立",
    "縣市名稱": "[01]新北市",
    "地址": "[237]新北市三峽區溪東里溪東路213號",
    "電話": "(02)86764945",
    "網址": "https://www.chenfu.ntpc.edu.tw",
    "備註": "",
    "latitude": 24.9286875,
    "longitude": 121.412352
  },
  {
    "學校名稱": "市立大成國小",
    "公/私立": "公立",
    "縣市名稱": "[01]新北市",
    "地址": "[237]新北市三峽區成福路251巷2號",
    "電話": "(02)26726521",
    "網址": "https://www.dces.ntpc.edu.tw",
    "備註": "",
    "latitude": 24.9248223,
    "longitude": 121.4273348
  },
  {
    "學校名稱": "市立建安國小",
    "公/私立": "公立",
    "縣市名稱": "[01]新北市",
    "地址": "[237]新北市三峽區安坑里建安路67號",
    "電話": "(02)26726783",
    "網址": "https://web.caes.ntpc.edu.tw",
    "備註": "",
    "latitude": 24.9221305,
    "longitude": 121.4572496
  },
  {
    "學校名稱": "市立插角國小",
    "公/私立": "公立",
    "縣市名稱": "[01]新北市",
    "地址": "[237]新北市三峽區插角里插角路39號",
    "電話": "(02)26720230",
    "網址": "https://www.cgps.ntpc.edu.tw",
    "備註": "",
    "latitude": 24.8870912,
    "longitude": 121.4220607
  },
  {
    "學校名稱": "市立有木國小",
    "公/私立": "公立",
    "縣市名稱": "[01]新北市",
    "地址": "[237]新北市三峽區有木里131號",
    "電話": "(02)26720067",
    "網址": "https://www.ymps.ntpc.edu.tw",
    "備註": "",
    "latitude": 24.8358236,
    "longitude": 121.4541056
  },
  {
    "學校名稱": "市立五寮國小",
    "公/私立": "公立",
    "縣市名稱": "[01]新北市",
    "地址": "[237]新北市三峽區五寮里69號",
    "電話": "(02)26720298",
    "網址": "https://www.wres.ntpc.edu.tw",
    "備註": "",
    "latitude": 24.9343387,
    "longitude": 121.368905
  },
  {
    "學校名稱": "市立中和國小",
    "公/私立": "公立",
    "縣市名稱": "[01]新北市",
    "地址": "[235]新北市中和區中和路100號",
    "電話": "(02)22492550",
    "網址": "https://www.jhes.ntpc.edu.tw",
    "備註": "",
    "latitude": 25.0005683,
    "longitude": 121.5011164
  },
  {
    "學校名稱": "市立復興國小",
    "公/私立": "公立",
    "縣市名稱": "[01]新北市",
    "地址": "[235]新北市中和區復興路301巷6號",
    "電話": "(02)22472993",
    "網址": "https://web.fsps.ntpc.edu.tw",
    "備註": "",
    "latitude": 24.9897358,
    "longitude": 121.5020057
  },
  {
    "學校名稱": "市立興南國小",
    "公/私立": "公立",
    "縣市名稱": "[01]新北市",
    "地址": "[235]新北市中和區興南路一段135巷24號",
    "電話": "(02)29422349",
    "網址": "https://www.hnps.ntpc.edu.tw",
    "備註": "",
    "latitude": 24.9867669,
    "longitude": 121.5089968
  },
  {
    "學校名稱": "市立秀山國小",
    "公/私立": "公立",
    "縣市名稱": "[01]新北市",
    "地址": "[235]新北市中和區立人街2號",
    "電話": "(02)29434353",
    "網址": "https://www.ssps.ntpc.edu.tw",
    "備註": "",
    "latitude": 24.9941205,
    "longitude": 121.5209527
  },
  {
    "學校名稱": "市立積穗國小",
    "公/私立": "公立",
    "縣市名稱": "[01]新北市",
    "地址": "[235]新北市中和區員山路154號",
    "電話": "(02)22225533",
    "網址": "https://www.tjsps.ntpc.edu.tw",
    "備註": "",
    "latitude": 24.9957246,
    "longitude": 121.4810624
  },
  {
    "學校名稱": "市立自強國小",
    "公/私立": "公立",
    "縣市名稱": "[01]新北市",
    "地址": "[235]新北市中和區莒光路200號",
    "電話": "(02)29557936",
    "網址": "https://www.jcps.ntpc.edu.tw",
    "備註": "",
    "latitude": 25.0010802,
    "longitude": 121.4726015
  },
  {
    "學校名稱": "市立錦和國小",
    "公/私立": "公立",
    "縣市名稱": "[01]新北市",
    "地址": "[235]新北市中和區圓通路292號",
    "電話": "(02)22479495",
    "網址": "https://www.chps.ntpc.edu.tw",
    "備註": "",
    "latitude": 24.9882982,
    "longitude": 121.4871852
  },
  {
    "學校名稱": "市立景新國小",
    "公/私立": "公立",
    "縣市名稱": "[01]新北市",
    "地址": "[235]新北市中和區景新街467巷37號",
    "電話": "(02)29448021",
    "網址": "https://www.jsps.ntpc.edu.tw",
    "備註": "",
    "latitude": 24.9883199,
    "longitude": 121.5140176
  },
  {
    "學校名稱": "市立永和國小",
    "公/私立": "公立",
    "縣市名稱": "[01]新北市",
    "地址": "[234]新北市永和區秀朗路一段120號",
    "電話": "(02)29214615",
    "網址": "https://www.yhes.ntpc.edu.tw",
    "備註": "",
    "latitude": 25.0047057,
    "longitude": 121.5162013
  },
  {
    "學校名稱": "市立秀朗國小",
    "公/私立": "公立",
    "縣市名稱": "[01]新北市",
    "地址": "[234]新北市永和區得和路202號",
    "電話": "(02)29420451",
    "網址": "https://www.hles.ntpc.edu.tw",
    "備註": "",
    "latitude": 25.0001608,
    "longitude": 121.516068
  },
  {
    "學校名稱": "市立頂溪國小",
    "公/私立": "公立",
    "縣市名稱": "[01]新北市",
    "地址": "[234]新北市永和區文化路133號",
    "電話": "(02)29212058",
    "網址": "https://www.thps.ntpc.edu.tw",
    "備註": "",
    "latitude": 25.0168692,
    "longitude": 121.5098381
  },
  {
    "學校名稱": "市立網溪國小",
    "公/私立": "公立",
    "縣市名稱": "[01]新北市",
    "地址": "[234]新北市永和區竹林路79號",
    "電話": "(02)89264470",
    "網址": "https://www.whps.ntpc.edu.tw",
    "備註": "",
    "latitude": 25.0123122,
    "longitude": 121.519561
  },
  {
    "學校名稱": "市立永平國小",
    "公/私立": "公立",
    "縣市名稱": "[01]新北市",
    "地址": "[234]新北市永和區保生路25號",
    "電話": "(02)29259879",
    "網址": "https://www.ypes.ntpc.edu.tw",
    "備註": "",
    "latitude": 25.0112783,
    "longitude": 121.5048883
  },
  {
    "學校名稱": "市立土城國小",
    "公/私立": "公立",
    "縣市名稱": "[01]新北市",
    "地址": "[236]新北市土城區興城路17號",
    "電話": "(02)22700177",
    "網址": "https://www.ttcps.ntpc.edu.tw",
    "備註": "",
    "latitude": 24.9725292,
    "longitude": 121.4413065
  },
  {
    "學校名稱": "市立清水國小",
    "公/私立": "公立",
    "縣市名稱": "[01]新北市",
    "地址": "[236]新北市土城區金城路二段356號",
    "電話": "(02)22618316",
    "網址": "https://www.cses.ntpc.edu.tw",
    "備註": "",
    "latitude": 24.9780029,
    "longitude": 121.4500365
  },
  {
    "學校名稱": "市立頂埔國小",
    "公/私立": "公立",
    "縣市名稱": "[01]新北市",
    "地址": "[236]新北市土城區頂福里中央路四段205號",
    "電話": "(02)22686800",
    "網址": "https://www.dpes.ntpc.edu.tw",
    "備註": "",
    "latitude": 24.9553965,
    "longitude": 121.4146418
  },
  {
    "學校名稱": "市立廣福國小",
    "公/私立": "公立",
    "縣市名稱": "[01]新北市",
    "地址": "[236]新北市土城區學府路一段127號",
    "電話": "(02)22626782",
    "網址": "https://www.gfes.ntpc.edu.tw",
    "備註": "",
    "latitude": 24.9840333,
    "longitude": 121.4509716
  },
  {
    "學校名稱": "市立汐止國小",
    "公/私立": "公立",
    "縣市名稱": "[01]新北市",
    "地址": "[221]新北市汐止區大同路二段313號",
    "電話": "(02)26477271",
    "網址": "https://www.hjes.ntpc.edu.tw",
    "備註": "",
    "latitude": 25.0644121,
    "longitude": 121.6526443
  },
  {
    "學校名稱": "市立長安國小",
    "公/私立": "公立",
    "縣市名稱": "[01]新北市",
    "地址": "[221]新北市汐止區長興街一段80號",
    "電話": "(02)86480944",
    "網址": "https://www.chanes.ntpc.edu.tw",
    "備註": "",
    "latitude": 25.0792246,
    "longitude": 121.6705865
  },
  {
    "學校名稱": "市立保長國小",
    "公/私立": "公立",
    "縣市名稱": "[01]新北市",
    "地址": "[221]新北市汐止區大同路三段553號",
    "電話": "(02)86482502",
    "網址": "https://www.bjes.ntpc.edu.tw",
    "備註": "",
    "latitude": 25.0776458,
    "longitude": 121.6698289
  },
  {
    "學校名稱": "市立崇德國小",
    "公/私立": "公立",
    "縣市名稱": "[01]新北市",
    "地址": "[221]新北市汐止區茄苳里茄苳路158號",
    "電話": "(02)86482052",
    "網址": "https://www.cdps.ntpc.edu.tw",
    "備註": "",
    "latitude": 25.0674451,
    "longitude": 121.6728639
  },
  {
    "學校名稱": "市立北港國小",
    "公/私立": "公立",
    "縣市名稱": "[01]新北市",
    "地址": "[221]新北市汐止區汐萬路二段279號",
    "電話": "(02)26462832",
    "網址": "https://www.bkes.ntpc.edu.tw",
    "備註": "",
    "latitude": 25.0895194,
    "longitude": 121.6456152
  },
  {
    "學校名稱": "市立北峰國小",
    "公/私立": "公立",
    "縣市名稱": "[01]新北市",
    "地址": "[221]新北市汐止區中興里環河街1號",
    "電話": "(02)26941817",
    "網址": "https://www.pfes.ntpc.edu.tw",
    "備註": "",
    "latitude": 25.0611293,
    "longitude": 121.6307323
  },
  {
    "學校名稱": "市立東山國小",
    "公/私立": "公立",
    "縣市名稱": "[01]新北市",
    "地址": "[221]新北市汐止區東山里汐平路二段76號",
    "電話": "(02)26416170",
    "網址": "https://www.dsps.ntpc.edu.tw",
    "備註": "",
    "latitude": 25.0548531,
    "longitude": 121.7139029
  },
  {
    "學校名稱": "市立白雲國小",
    "公/私立": "公立",
    "縣市名稱": "[01]新北市",
    "地址": "[221]新北市汐止區福山里民權街二段90號",
    "電話": "(02)26403909",
    "網址": "https://www.pyps.ntpc.edu.tw",
    "備註": "",
    "latitude": 25.0476232,
    "longitude": 121.6190106
  },
  {
    "學校名稱": "市立萬里國小",
    "公/私立": "公立",
    "縣市名稱": "[01]新北市",
    "地址": "[207]新北市萬里區瑪鋉路18號",
    "電話": "(02)24922034",
    "網址": "https://www.wlps.ntpc.edu.tw",
    "備註": "",
    "latitude": 25.1761374,
    "longitude": 121.6880228
  },
  {
    "學校名稱": "市立野柳國小",
    "公/私立": "公立",
    "縣市名稱": "[01]新北市",
    "地址": "[207]新北市萬里區野柳里港東路167號",
    "電話": "(02)24922512",
    "網址": "https://www.ylps.ntpc.edu.tw",
    "備註": "",
    "latitude": 25.203524,
    "longitude": 121.6870017
  },
  {
    "學校名稱": "市立大鵬國小",
    "公/私立": "公立",
    "縣市名稱": "[01]新北市",
    "地址": "[207]新北市萬里區大鵬里加投路14號",
    "電話": "(02)24988131",
    "網址": "https://www.tpes.ntpc.edu.tw",
    "備註": "",
    "latitude": 25.2127562,
    "longitude": 121.6460641
  },
  {
    "學校名稱": "市立大坪國小",
    "公/私立": "公立",
    "縣市名稱": "[01]新北市",
    "地址": "[207]新北市萬里區雙興里大坪路1號",
    "電話": "(02)24929461",
    "網址": "https://www.dpps.ntpc.edu.tw",
    "備註": "",
    "latitude": 25.1695412,
    "longitude": 121.6290617
  },
  {
    "學校名稱": "市立崁腳國小",
    "公/私立": "公立",
    "縣市名稱": "[01]新北市",
    "地址": "[207]新北市萬里區崁脚里崁脚路59號",
    "電話": "(02)24922037",
    "網址": "https://www.kjps.ntpc.edu.tw",
    "備註": "",
    "latitude": 22.7015934,
    "longitude": 112.2280472
  },
  {
    "學校名稱": "市立金山國小",
    "公/私立": "公立",
    "縣市名稱": "[01]新北市",
    "地址": "[208]新北市金山區中山路234號",
    "電話": "(02)24981125",
    "網址": "https://www.tpcses.ntpc.edu.tw",
    "備註": "",
    "latitude": 25.226188,
    "longitude": 121.6320411
  },
  {
    "學校名稱": "市立中角國小",
    "公/私立": "公立",
    "縣市名稱": "[01]新北市",
    "地址": "[208]新北市金山區萬壽里海興路49號",
    "電話": "(02)24982413",
    "網址": "https://www.jjps.ntpc.edu.tw",
    "備註": "",
    "latitude": 25.2391561,
    "longitude": 121.6316426
  },
  {
    "學校名稱": "市立三和國小",
    "公/私立": "公立",
    "縣市名稱": "[01]新北市",
    "地址": "[208]新北市金山區重和里11鄰六股林口38號",
    "電話": "(02)24080417",
    "網址": "https://www.sanho.ntpc.edu.tw",
    "備註": "",
    "latitude": 30.744817,
    "longitude": 121.3372571
  },
  {
    "學校名稱": "市立新店國小",
    "公/私立": "公立",
    "縣市名稱": "[01]新北市",
    "地址": "[231]新北市新店區新店路2號",
    "電話": "(02)29103483",
    "網址": "https://www.xdes.ntpc.edu.tw",
    "備註": "",
    "latitude": 24.9576372,
    "longitude": 121.5372273
  },
  {
    "學校名稱": "市立直潭國小",
    "公/私立": "公立",
    "縣市名稱": "[01]新北市",
    "地址": "[231]新北市新店區直潭路92號",
    "電話": "(02)26667278",
    "網址": "https://www.jtes.ntpc.edu.tw",
    "備註": "",
    "latitude": 24.9367583,
    "longitude": 121.531773
  },
  {
    "學校名稱": "市立青潭國小",
    "公/私立": "公立",
    "縣市名稱": "[01]新北市",
    "地址": "[231]新北市新店區北宜路二段80號",
    "電話": "(02)22173146",
    "網址": "https://www.chtes.ntpc.edu.tw",
    "備註": "",
    "latitude": 24.9543219,
    "longitude": 121.5591842
  },
  {
    "學校名稱": "市立雙峰國小",
    "公/私立": "公立",
    "縣市名稱": "[01]新北市",
    "地址": "[231]新北市新店區北宜路三段66號",
    "電話": "(02)22174543",
    "網址": "https://www.sfes.ntpc.edu.tw",
    "備註": "",
    "latitude": 24.9523605,
    "longitude": 121.5865624
  },
  {
    "學校名稱": "市立大豐國小",
    "公/私立": "公立",
    "縣市名稱": "[01]新北市",
    "地址": "[231]新北市新店區民族路108號",
    "電話": "(02)22192619",
    "網址": "https://www.dfes.ntpc.edu.tw",
    "備註": "",
    "latitude": 24.9787321,
    "longitude": 121.5408786
  },
  {
    "學校名稱": "市立中正國小",
    "公/私立": "公立",
    "縣市名稱": "[01]新北市",
    "地址": "[231]新北市新店區三民路36號",
    "電話": "(02)29125432",
    "網址": "https://web.ccps.ntpc.edu.tw",
    "備註": "",
    "latitude": 24.9673935,
    "longitude": 121.5419418
  },
  {
    "學校名稱": "市立安坑國小",
    "公/私立": "公立",
    "縣市名稱": "[01]新北市",
    "地址": "[231]新北市新店區安忠路36號",
    "電話": "(02)22110560",
    "網址": "https://www.takes.ntpc.edu.tw",
    "備註": "",
    "latitude": 24.9472579,
    "longitude": 121.5094967
  },
  {
    "學校名稱": "市立雙城國小",
    "公/私立": "公立",
    "縣市名稱": "[01]新北市",
    "地址": "[231]新北市新店區安康路三段322號",
    "電話": "(02)22156511",
    "網址": "https://www.tcsps.ntpc.edu.tw",
    "備註": "",
    "latitude": 24.948739,
    "longitude": 121.4815931
  },
  {
    "學校名稱": "市立屈尺國小",
    "公/私立": "公立",
    "縣市名稱": "[01]新北市",
    "地址": "[231]新北市新店區屈尺路55號",
    "電話": "(02)26667490",
    "網址": "https://www.ccyes.ntpc.edu.tw",
    "備註": "",
    "latitude": 24.9226925,
    "longitude": 121.5473455
  },
  {
    "學校名稱": "市立龜山國小",
    "公/私立": "公立",
    "縣市名稱": "[01]新北市",
    "地址": "[231]新北市新店區新烏路三段99巷10號",
    "電話": "(02)26667317",
    "網址": "https://www.gses.ntpc.edu.tw",
    "備註": "",
    "latitude": 24.9016044,
    "longitude": 121.5533642
  },
  {
    "學校名稱": "市立深坑國小",
    "公/私立": "公立",
    "縣市名稱": "[01]新北市",
    "地址": "[222]新北市深坑區深坑里文化街45號",
    "電話": "(02)26624675",
    "網址": "https://www.tskes.ntpc.edu.tw",
    "備註": "",
    "latitude": 25.0014813,
    "longitude": 121.6195946
  },
  {
    "學校名稱": "市立石碇國小",
    "公/私立": "公立",
    "縣市名稱": "[01]新北市",
    "地址": "[223]新北市石碇區石碇里石碇西街15號",
    "電話": "(02)26631244",
    "網址": "https://www.stes.ntpc.edu.tw",
    "備註": "",
    "latitude": 24.9415064,
    "longitude": 121.3593935
  },
  {
    "學校名稱": "市立和平國小",
    "公/私立": "公立",
    "縣市名稱": "[01]新北市",
    "地址": "[223]新北市石碇區靜安路一段5號",
    "電話": "(02)26631405",
    "網址": "https://www.hpps.ntpc.edu.tw",
    "備註": "",
    "latitude": 25.0071286,
    "longitude": 121.6657949
  },
  {
    "學校名稱": "市立永定國小",
    "公/私立": "公立",
    "縣市名稱": "[01]新北市",
    "地址": "[223]新北市石碇區永定里靜安路一段245號",
    "電話": "(02)26631288",
    "網址": "https://www.tydes.ntpc.edu.tw",
    "備註": "",
    "latitude": 25.0078252,
    "longitude": 121.6984972
  },
  {
    "學校名稱": "市立雲海國小",
    "公/私立": "公立",
    "縣市名稱": "[01]新北市",
    "地址": "[223]新北市石碇區北宜路五段坑內巷1號",
    "電話": "(02)26651715",
    "網址": "https://www.whies.ntpc.edu.tw",
    "備註": "",
    "latitude": 24.953458,
    "longitude": 121.6350405
  },
  {
    "學校名稱": "市立坪林國小",
    "公/私立": "公立",
    "縣市名稱": "[01]新北市",
    "地址": "[232]新北市坪林區坪林里坪林街114號",
    "電話": "(02)26656213",
    "網址": "https://www.plnes.ntpc.edu.tw",
    "備註": "",
    "latitude": 24.9363374,
    "longitude": 121.7109933
  },
  {
    "學校名稱": "市立烏來國(中)小",
    "公/私立": "公立",
    "縣市名稱": "[01]新北市",
    "地址": "[233]新北市烏來區啦卡路5號",
    "電話": "(02)26616482",
    "網址": "https://www.wups.ntpc.edu.tw",
    "備註": "",
    "latitude": 24.8555818,
    "longitude": 121.5639789
  },
  {
    "學校名稱": "市立德拉楠民族實驗小學",
    "公/私立": "公立",
    "縣市名稱": "[01]新北市",
    "地址": "[233]新北市烏來區福山里李茂岸56號",
    "電話": "(02)26616124",
    "網址": "https://www.fses.ntpc.edu.tw",
    "備註": "",
    "latitude": 24.8639758,
    "longitude": 121.5512547
  },
  {
    "學校名稱": "市立瑞芳國小",
    "公/私立": "公立",
    "縣市名稱": "[01]新北市",
    "地址": "[224]新北市瑞芳區龍川里中山路2號",
    "電話": "(02)24972058",
    "網址": "https://www.rfes.ntpc.edu.tw",
    "備註": "",
    "latitude": 25.1078011,
    "longitude": 121.8048294
  },
  {
    "學校名稱": "市立義方國小",
    "公/私立": "公立",
    "縣市名稱": "[01]新北市",
    "地址": "[224]新北市瑞芳區龍山里逢甲路360號",
    "電話": "(02)24970961",
    "網址": "https://web.jfps.ntpc.edu.tw",
    "備註": "",
    "latitude": 25.119312,
    "longitude": 121.7987742
  },
  {
    "學校名稱": "市立瑞柑國小",
    "公/私立": "公立",
    "縣市名稱": "[01]新北市",
    "地址": "[224]新北市瑞芳區明燈路一段18巷13號",
    "電話": "(02)24971009",
    "網址": "https://www.rges.ntpc.edu.tw",
    "備註": "",
    "latitude": 25.1086871,
    "longitude": 121.8225886
  },
  {
    "學校名稱": "市立瑞濱國小",
    "公/私立": "公立",
    "縣市名稱": "[01]新北市",
    "地址": "[224]新北市瑞芳區瑞濱路34號",
    "電話": "(02)24978184",
    "網址": "https://www.jpes.ntpc.edu.tw",
    "備註": "",
    "latitude": 25.111427,
    "longitude": 121.811264
  },
  {
    "學校名稱": "市立九份國小",
    "公/私立": "公立",
    "縣市名稱": "[01]新北市",
    "地址": "[224]新北市瑞芳區永慶里崙頂路145號",
    "電話": "(02)24972263",
    "網址": "https://www.jfes.ntpc.edu.tw",
    "備註": "",
    "latitude": 25.1065943,
    "longitude": 121.8463184
  },
  {
    "學校名稱": "市立瓜山國小",
    "公/私立": "公立",
    "縣市名稱": "[01]新北市",
    "地址": "[224]新北市瑞芳區石山里五號路306號",
    "電話": "(02)24962036",
    "網址": "https://www.gsps.ntpc.edu.tw",
    "備註": "",
    "latitude": 25.1089107,
    "longitude": 121.8097683
  },
  {
    "學校名稱": "市立濂洞國小",
    "公/私立": "公立",
    "縣市名稱": "[01]新北市",
    "地址": "[224]新北市瑞芳區濓洞里洞頂路101巷80號",
    "電話": "(02)24961330",
    "網址": "https://www.ldes.ntpc.edu.tw/",
    "備註": "",
    "latitude": 25.1199552,
    "longitude": 121.8607768
  },
  {
    "學校名稱": "市立猴硐-蒙特梭利實小",
    "公/私立": "公立",
    "縣市名稱": "[01]新北市",
    "地址": "[224]新北市瑞芳區弓橋里九芎橋路69-1號",
    "電話": "(02)24960450",
    "網址": "https://www.htes.ntpc.edu.tw",
    "備註": "",
    "latitude": 25.1089107,
    "longitude": 121.8097683
  },
  {
    "學校名稱": "市立瑞亭國小",
    "公/私立": "公立",
    "縣市名稱": "[01]新北市",
    "地址": "[224]新北市瑞芳區四腳亭埔路23號",
    "電話": "(02)24971726",
    "網址": "https://www.rtes.ntpc.edu.tw",
    "備註": "",
    "latitude": 25.1089107,
    "longitude": 121.8097683
  },
  {
    "學校名稱": "市立吉慶國小",
    "公/私立": "公立",
    "縣市名稱": "[01]新北市",
    "地址": "[224]新北市瑞芳區吉安里大埔路95號",
    "電話": "(02)24576405",
    "網址": "https://www.cces.ntpc.edu.tw",
    "備註": "",
    "latitude": 25.1000108,
    "longitude": 121.7656058
  },
  {
    "學校名稱": "市立鼻頭國小",
    "公/私立": "公立",
    "縣市名稱": "[01]新北市",
    "地址": "[224]新北市瑞芳區鼻頭里鼻頭路99號",
    "電話": "(02)24911571",
    "網址": "https://www.pitoues.ntpc.edu.tw",
    "備註": "",
    "latitude": 25.12304,
    "longitude": 121.9114185
  },
  {
    "學校名稱": "市立雙溪國小",
    "公/私立": "公立",
    "縣市名稱": "[01]新北市",
    "地址": "[227]新北市雙溪區共和里東榮街54號",
    "電話": "(02)24931005",
    "網址": "https://www.sses.ntpc.edu.tw",
    "備註": "",
    "latitude": 25.0323556,
    "longitude": 121.8689981
  },
  {
    "學校名稱": "市立柑林國小",
    "公/私立": "公立",
    "縣市名稱": "[01]新北市",
    "地址": "[227]新北市雙溪區長源里柑腳3號",
    "電話": "(02)24931624",
    "網址": "https://www.gles.ntpc.edu.tw",
    "備註": "",
    "latitude": 25.0145805,
    "longitude": 121.7948332
  },
  {
    "學校名稱": "市立上林國小",
    "公/私立": "公立",
    "縣市名稱": "[01]新北市",
    "地址": "[227]新北市雙溪區上林里內平林60號",
    "電話": "(02)24931671",
    "網址": "https://www.ulps.ntpc.edu.tw",
    "備註": "",
    "latitude": 25.0328918,
    "longitude": 121.8353857
  },
  {
    "學校名稱": "市立牡丹國小",
    "公/私立": "公立",
    "縣市名稱": "[01]新北市",
    "地址": "[227]新北市雙溪區三貂里政光路3號",
    "電話": "(02)24931240",
    "網址": "https://www.mdps.ntpc.edu.tw",
    "備註": "",
    "latitude": 25.033409,
    "longitude": 121.865676
  },
  {
    "學校名稱": "市立貢寮國小",
    "公/私立": "公立",
    "縣市名稱": "[01]新北市",
    "地址": "[228]新北市貢寮區雙玉里學苑街7號",
    "電話": "(02)24941274",
    "網址": "https://www.kles.ntpc.edu.tw",
    "備註": "",
    "latitude": 25.0252953,
    "longitude": 121.9196983
  },
  {
    "學校名稱": "市立福隆國小",
    "公/私立": "公立",
    "縣市名稱": "[01]新北市",
    "地址": "[228]新北市貢寮區福隆里東興街35號",
    "電話": "(02)24991449",
    "網址": "https://www.flps.ntpc.edu.tw",
    "備註": "",
    "latitude": 25.020724,
    "longitude": 121.9504376
  },
  {
    "學校名稱": "市立澳底國小",
    "公/私立": "公立",
    "縣市名稱": "[01]新北市",
    "地址": "[228]新北市貢寮區真理里延平街10號",
    "電話": "(02)24901432",
    "網址": "https://www.aodi.ntpc.edu.tw",
    "備註": "",
    "latitude": 25.0566238,
    "longitude": 121.9244877
  },
  {
    "學校名稱": "市立和美國小",
    "公/私立": "公立",
    "縣市名稱": "[01]新北市",
    "地址": "[228]新北市貢寮區和美里龍洞街1之9號",
    "電話": "(02)24909431",
    "網址": "https://www.hmps.ntpc.edu.tw",
    "備註": "",
    "latitude": 25.1124069,
    "longitude": 121.9135833
  },
  {
    "學校名稱": "市立福連國小",
    "公/私立": "公立",
    "縣市名稱": "[01]新北市",
    "地址": "[228]新北市貢寮區福連里福連街1號",
    "電話": "(02)24991194",
    "網址": "https://www.fulps.ntpc.edu.tw",
    "備註": "",
    "latitude": 25.0202163,
    "longitude": 121.9875244
  },
  {
    "學校名稱": "市立平溪國小",
    "公/私立": "公立",
    "縣市名稱": "[01]新北市",
    "地址": "[226]新北市平溪區平溪街56號",
    "電話": "(02)24951038",
    "網址": "https://www.pses.ntpc.edu.tw",
    "備註": "",
    "latitude": 25.0309285,
    "longitude": 121.7432685
  },
  {
    "學校名稱": "市立菁桐國小",
    "公/私立": "公立",
    "縣市名稱": "[01]新北市",
    "地址": "[226]新北市平溪區菁桐街45號",
    "電話": "(02)24951009",
    "網址": "https://www.tgtes.ntpc.edu.tw",
    "備註": "",
    "latitude": 25.0248719,
    "longitude": 121.7215078
  },
  {
    "學校名稱": "市立十分國小",
    "公/私立": "公立",
    "縣市名稱": "[01]新北市",
    "地址": "[226]新北市平溪區十分里十分街157號",
    "電話": "(02)24958305",
    "網址": "https://www.tsfes.ntpc.edu.tw",
    "備註": "",
    "latitude": 25.025797,
    "longitude": 121.739144
  },
  {
    "學校名稱": "市立淡水國小",
    "公/私立": "公立",
    "縣市名稱": "[01]新北市",
    "地址": "[251]新北市淡水區協元里中山路160號",
    "電話": "(02)26212755",
    "網址": "https://www.tsps.ntpc.edu.tw",
    "備註": "",
    "latitude": 25.1716096,
    "longitude": 121.4410096
  },
  {
    "學校名稱": "市立育英國小",
    "公/私立": "公立",
    "縣市名稱": "[01]新北市",
    "地址": "[251]新北市淡水區埤島里14號",
    "電話": "(02)26214390",
    "網址": "https://www.yies.ntpc.edu.tw",
    "備註": "",
    "latitude": 25.1938442,
    "longitude": 121.4515163
  },
  {
    "學校名稱": "市立文化國小",
    "公/私立": "公立",
    "縣市名稱": "[01]新北市",
    "地址": "[251]新北市淡水區文化里真理街6號",
    "電話": "(02)26212031",
    "網址": "https://www.twhps.ntpc.edu.tw",
    "備註": "",
    "latitude": 25.1747027,
    "longitude": 121.4361858
  },
  {
    "學校名稱": "市立天生國小",
    "公/私立": "公立",
    "縣市名稱": "[01]新北市",
    "地址": "[251]新北市淡水區淡海路72巷26號",
    "電話": "(02)28052695",
    "網址": "https://www.tisnes.ntpc.edu.tw",
    "備註": "",
    "latitude": 25.1819515,
    "longitude": 121.4242077
  },
  {
    "學校名稱": "市立水源國小",
    "公/私立": "公立",
    "縣市名稱": "[01]新北市",
    "地址": "[251]新北市淡水區水源里北新路二段15號",
    "電話": "(02)26211347",
    "網址": "https://www.hyes.ntpc.edu.tw",
    "備註": "",
    "latitude": 25.1856502,
    "longitude": 121.4786708
  },
  {
    "學校名稱": "市立興仁國小",
    "公/私立": "公立",
    "縣市名稱": "[01]新北市",
    "地址": "[251]新北市淡水區興仁路101巷10號",
    "電話": "(02)26213783",
    "網址": "https://web.shrens.ntpc.edu.tw",
    "備註": "",
    "latitude": 25.2166268,
    "longitude": 121.4510647
  },
  {
    "學校名稱": "市立忠山實驗小學",
    "公/私立": "公立",
    "縣市名稱": "[01]新北市",
    "地址": "[251]新北市淡水區忠山里行忠路899號",
    "電話": "(02)26216139",
    "網址": "https://www.tcses.ntpc.edu.tw",
    "備註": "",
    "latitude": 25.1993188,
    "longitude": 121.468327
  },
  {
    "學校名稱": "市立屯山國小",
    "公/私立": "公立",
    "縣市名稱": "[01]新北市",
    "地址": "[251]新北市淡水區淡金路五段111號",
    "電話": "(02)28012591",
    "網址": "https://www.ttses.ntpc.edu.tw",
    "備註": "",
    "latitude": 25.2338222,
    "longitude": 121.4547017
  },
  {
    "學校名稱": "市立中泰國小",
    "公/私立": "公立",
    "縣市名稱": "[01]新北市",
    "地址": "[251]新北市淡水區中和里北勢子5號",
    "電話": "(02)28012033",
    "網址": "https://www.ctps.ntpc.edu.tw",
    "備註": "",
    "latitude": 35.024879,
    "longitude": 135.750498
  },
  {
    "學校名稱": "市立坪頂國小",
    "公/私立": "公立",
    "縣市名稱": "[01]新北市",
    "地址": "[251]新北市淡水區坪頂路757號",
    "電話": "(02)86263105",
    "網址": "https://www.pdes.ntpc.edu.tw",
    "備註": "",
    "latitude": 25.1602984,
    "longitude": 121.4557672
  },
  {
    "學校名稱": "市立竹圍國小",
    "公/私立": "公立",
    "縣市名稱": "[01]新北市",
    "地址": "[251]新北市淡水區中正東路二段145號",
    "電話": "(02)28091475",
    "網址": "https://www.cwps.ntpc.edu.tw",
    "備註": "",
    "latitude": 25.1505215,
    "longitude": 121.4593775
  },
  {
    "學校名稱": "市立石門國小",
    "公/私立": "公立",
    "縣市名稱": "[01]新北市",
    "地址": "[253]新北市石門區尖鹿里中央路9號",
    "電話": "(02)26381263",
    "網址": "https://www.smes.ntpc.edu.tw",
    "備註": "",
    "latitude": 25.2923937,
    "longitude": 121.566733
  },
  {
    "學校名稱": "市立乾華國小",
    "公/私立": "公立",
    "縣市名稱": "[01]新北市",
    "地址": "[253]新北市石門區茂林里茂林社區74號",
    "電話": "(02)26381269",
    "網址": "https://web.cwes.ntpc.edu.tw/",
    "備註": "",
    "latitude": 25.2686313,
    "longitude": 121.5921862
  },
  {
    "學校名稱": "市立老梅實驗小學",
    "公/私立": "公立",
    "縣市名稱": "[01]新北市",
    "地址": "[253]新北市石門區老梅里老梅路10號",
    "電話": "(02)26381258",
    "網址": "https://www.lmes.ntpc.edu.tw",
    "備註": "",
    "latitude": 25.2892713,
    "longitude": 121.545396
  },
  {
    "學校名稱": "市立三芝國小",
    "公/私立": "公立",
    "縣市名稱": "[01]新北市",
    "地址": "[252]新北市三芝區埔頭里育英街22號",
    "電話": "(02)26362005",
    "網址": "https://www.sces.ntpc.edu.tw",
    "備註": "",
    "latitude": 25.2576331,
    "longitude": 121.5022802
  },
  {
    "學校名稱": "市立橫山國小",
    "公/私立": "公立",
    "縣市名稱": "[01]新北市",
    "地址": "[252]新北市三芝區橫山里86號",
    "電話": "(02)26362473",
    "網址": "https://www.hses.ntpc.edu.tw",
    "備註": "",
    "latitude": 25.247339,
    "longitude": 121.5330094
  },
  {
    "學校名稱": "市立興華國小",
    "公/私立": "公立",
    "縣市名稱": "[01]新北市",
    "地址": "[252]新北市三芝區興華里田心子5號",
    "電話": "(02)26371366",
    "網址": "https://www.hhes.ntpc.edu.tw",
    "備註": "",
    "latitude": 25.201148,
    "longitude": 121.4937258
  },
  {
    "學校名稱": "市立新莊國小",
    "公/私立": "公立",
    "縣市名稱": "[01]新北市",
    "地址": "[242]新北市新莊區立人里中正路86號",
    "電話": "(02)29931201",
    "網址": "https://www.scps.ntpc.edu.tw",
    "備註": "",
    "latitude": 25.0381153,
    "longitude": 121.4537968
  },
  {
    "學校名稱": "市立中港國小",
    "公/私立": "公立",
    "縣市名稱": "[01]新北市",
    "地址": "[242]新北市新莊區立志里中港一街142號",
    "電話": "(02)29925550",
    "網址": "https://www.jgps.ntpc.edu.tw",
    "備註": "",
    "latitude": 25.0452987,
    "longitude": 121.4492595
  },
  {
    "學校名稱": "市立思賢國小",
    "公/私立": "公立",
    "縣市名稱": "[01]新北市",
    "地址": "[242]新北市新莊區自立街229號",
    "電話": "(02)29980443",
    "網址": "https://www.sies.ntpc.edu.tw",
    "備註": "",
    "latitude": 25.0454689,
    "longitude": 121.4565083
  },
  {
    "學校名稱": "市立頭前國小",
    "公/私立": "公立",
    "縣市名稱": "[01]新北市",
    "地址": "[242]新北市新莊區頭前里化成路231號",
    "電話": "(02)29920238",
    "網址": "https://www.tcps.ntpc.edu.tw",
    "備註": "",
    "latitude": 25.046508,
    "longitude": 121.451929
  },
  {
    "學校名稱": "市立國泰國小",
    "公/私立": "公立",
    "縣市名稱": "[01]新北市",
    "地址": "[242]新北市新莊區中正路386號",
    "電話": "(02)29043693",
    "網址": "https://www.gtps.ntpc.edu.tw",
    "備註": "",
    "latitude": 25.0235539,
    "longitude": 121.4150304
  },
  {
    "學校名稱": "市立豐年國小",
    "公/私立": "公立",
    "縣市名稱": "[01]新北市",
    "地址": "[242]新北市新莊區國泰里瓊泰路116號",
    "電話": "(02)22017102",
    "網址": "https://www.fnes.ntpc.edu.tw",
    "備註": "",
    "latitude": 25.0306995,
    "longitude": 121.4440861
  },
  {
    "學校名稱": "市立丹鳳國小",
    "公/私立": "公立",
    "縣市名稱": "[01]新北市",
    "地址": "[242]新北市新莊區新北大道七段437號",
    "電話": "(02)29035355",
    "網址": "https://www.tfon.ntpc.edu.tw",
    "備註": "",
    "latitude": 25.0320299,
    "longitude": 121.4178521
  },
  {
    "學校名稱": "市立光華國小",
    "公/私立": "公立",
    "縣市名稱": "[01]新北市",
    "地址": "[242]新北市新莊區龍安路452號",
    "電話": "(02)22058866",
    "網址": "https://www.ghes.ntpc.edu.tw",
    "備註": "",
    "latitude": 25.0212439,
    "longitude": 121.4145479
  },
  {
    "學校名稱": "市立民安國小",
    "公/私立": "公立",
    "縣市名稱": "[01]新北市",
    "地址": "[242]新北市新莊區民全里民安路261號",
    "電話": "(02)22056777",
    "網址": "https://www.maes.ntpc.edu.tw",
    "備註": "",
    "latitude": 25.0223592,
    "longitude": 121.4277892
  },
  {
    "學校名稱": "市立昌隆國小",
    "公/私立": "公立",
    "縣市名稱": "[01]新北市",
    "地址": "[242]新北市新莊區昌隆街63號",
    "電話": "(02)29962351",
    "網址": "https://www.clps.ntpc.edu.tw",
    "備註": "",
    "latitude": 25.0508454,
    "longitude": 121.4555131
  },
  {
    "學校名稱": "市立泰山國小",
    "公/私立": "公立",
    "縣市名稱": "[01]新北市",
    "地址": "[243]新北市泰山區泰林路二段255號",
    "電話": "(02)29098842",
    "網址": "https://www.tses.ntpc.edu.tw",
    "備註": "",
    "latitude": 25.0540937,
    "longitude": 121.4377671
  },
  {
    "學校名稱": "市立明志國小",
    "公/私立": "公立",
    "縣市名稱": "[01]新北市",
    "地址": "[243]新北市泰山區新生路2號",
    "電話": "(02)29061133",
    "網址": "https://www.mjes.ntpc.edu.tw",
    "備註": "",
    "latitude": 25.0452997,
    "longitude": 121.4276332
  },
  {
    "學校名稱": "市立成州國小",
    "公/私立": "公立",
    "縣市名稱": "[01]新北市",
    "地址": "[248]新北市五股區成泰路三段493號",
    "電話": "(02)22933613",
    "網址": "https://www.cjoes.ntpc.edu.tw",
    "備註": "",
    "latitude": 25.0884633,
    "longitude": 121.4419609
  },
  {
    "學校名稱": "市立更寮國小",
    "公/私立": "公立",
    "縣市名稱": "[01]新北市",
    "地址": "[248]新北市五股區四維路2號",
    "電話": "(02)29824591",
    "網址": "https://www.glps.ntpc.edu.tw",
    "備註": "",
    "latitude": 25.082743,
    "longitude": 121.438156
  },
  {
    "學校名稱": "市立五股國小",
    "公/私立": "公立",
    "縣市名稱": "[01]新北市",
    "地址": "[248]新北市五股區五股里成泰路二段49號",
    "電話": "(02)22917191",
    "網址": "https://www.wkes.ntpc.edu.tw",
    "備註": "",
    "latitude": 25.082743,
    "longitude": 121.438156
  },
  {
    "學校名稱": "市立蘆洲國小",
    "公/私立": "公立",
    "縣市名稱": "[01]新北市",
    "地址": "[247]新北市蘆洲區中正路100號",
    "電話": "(02)22816202",
    "網址": "https://www.lces.ntpc.edu.tw",
    "備註": "",
    "latitude": 25.0837341,
    "longitude": 121.470026
  },
  {
    "學校名稱": "市立鷺江國小",
    "公/私立": "公立",
    "縣市名稱": "[01]新北市",
    "地址": "[247]新北市蘆洲區民族路7號",
    "電話": "(02)22819980",
    "網址": "https://www.lcps.ntpc.edu.tw",
    "備註": "",
    "latitude": 25.0906488,
    "longitude": 121.4763538
  },
  {
    "學校名稱": "市立八里國小",
    "公/私立": "公立",
    "縣市名稱": "[01]新北市",
    "地址": "[249]新北市八里區舊城里中山路二段338號",
    "電話": "(02)26102217",
    "網址": "https://www.ples.ntpc.edu.tw",
    "備註": "",
    "latitude": 25.1541239,
    "longitude": 121.4071411
  },
  {
    "學校名稱": "市立長坑國小",
    "公/私立": "公立",
    "縣市名稱": "[01]新北市",
    "地址": "[249]新北市八里區中華路三段236號",
    "電話": "(02)26102037",
    "網址": "https://www.ckes.ntpc.edu.tw",
    "備註": "",
    "latitude": 25.1190975,
    "longitude": 121.3878588
  },
  {
    "學校名稱": "市立米倉國小",
    "公/私立": "公立",
    "縣市名稱": "[01]新北市",
    "地址": "[249]新北市八里區米倉里龍米路2段129巷1號",
    "電話": "(02)26182202",
    "網址": "https://www.mtes.ntpc.edu.tw",
    "備註": "",
    "latitude": 25.158321,
    "longitude": 121.432982
  },
  {
    "學校名稱": "市立林口國小",
    "公/私立": "公立",
    "縣市名稱": "[01]新北市",
    "地址": "[244]新北市林口區菁湖里林口路76號",
    "電話": "(02)26011010",
    "網址": "https://www.lkes.ntpc.edu.tw",
    "備註": "",
    "latitude": 25.0824582,
    "longitude": 121.3898744
  },
  {
    "學校名稱": "市立南勢國小",
    "公/私立": "公立",
    "縣市名稱": "[01]新北市",
    "地址": "[244]新北市林口區南勢五街2號",
    "電話": "(02)26091020",
    "網址": "https://www.nses.ntpc.edu.tw",
    "備註": "",
    "latitude": 25.074793,
    "longitude": 121.3575691
  },
  {
    "學校名稱": "市立嘉寶國小",
    "公/私立": "公立",
    "縣市名稱": "[01]新北市",
    "地址": "[244]新北市林口區嘉寶里22號",
    "電話": "(02)26052716",
    "網址": "https://www.jbes.ntpc.edu.tw",
    "備註": "",
    "latitude": 25.110067,
    "longitude": 121.3405488
  },
  {
    "學校名稱": "市立瑞平國小",
    "公/私立": "公立",
    "縣市名稱": "[01]新北市",
    "地址": "[244]新北市林口區太平里後坑路34之1號",
    "電話": "(02)26052779",
    "網址": "https://www.rpes.ntpc.edu.tw",
    "備註": "",
    "latitude": 25.1318958,
    "longitude": 121.3563074
  },
  {
    "學校名稱": "市立興福國小",
    "公/私立": "公立",
    "縣市名稱": "[01]新北市",
    "地址": "[244]新北市林口區下福里20鄰10-1號",
    "電話": "(02)26062895",
    "網址": "https://www.hfps.ntpc.edu.tw",
    "備註": "",
    "latitude": 25.0775308,
    "longitude": 121.3916021
  },
  {
    "學校名稱": "市立三重國小",
    "公/私立": "公立",
    "縣市名稱": "[01]新北市",
    "地址": "[241]新北市三重區三和路三段1號",
    "電話": "(02)29722095",
    "網址": "https://www.tsces.ntpc.edu.tw",
    "備註": "",
    "latitude": 25.061486,
    "longitude": 121.488102
  },
  {
    "學校名稱": "市立永福國小",
    "公/私立": "公立",
    "縣市名稱": "[01]新北市",
    "地址": "[241]新北市三重區永福里永福街66號",
    "電話": "(02)22876716",
    "網址": "https://www.yfes.ntpc.edu.tw",
    "備註": "",
    "latitude": 25.075286,
    "longitude": 121.4789944
  },
  {
    "學校名稱": "市立光榮國小",
    "公/私立": "公立",
    "縣市名稱": "[01]新北市",
    "地址": "[241]新北市三重區介壽路32號",
    "電話": "(02)29730392",
    "網址": "https://www.gres.ntpc.edu.tw",
    "備註": "",
    "latitude": 25.0694732,
    "longitude": 121.4988051
  },
  {
    "學校名稱": "市立厚德國小",
    "公/私立": "公立",
    "縣市名稱": "[01]新北市",
    "地址": "[241]新北市三重區忠孝路一段70號",
    "電話": "(02)29868825",
    "網址": "https://www.hdes.ntpc.edu.tw",
    "備註": "",
    "latitude": 25.0720739,
    "longitude": 121.490054
  },
  {
    "學校名稱": "市立碧華國小",
    "公/私立": "公立",
    "縣市名稱": "[01]新北市",
    "地址": "[241]新北市三重區五華街160號",
    "電話": "(02)28577792",
    "網址": "https://www.bhes.ntpc.edu.tw",
    "備註": "",
    "latitude": 25.061486,
    "longitude": 121.488102
  },
  {
    "學校名稱": "市立三光國小",
    "公/私立": "公立",
    "縣市名稱": "[01]新北市",
    "地址": "[241]新北市三重區同安里大同南路157號",
    "電話": "(02)29753308",
    "網址": "https://www.skes.ntpc.edu.tw/",
    "備註": "",
    "latitude": 25.061486,
    "longitude": 121.488102
  },
  {
    "學校名稱": "市立光興國小",
    "公/私立": "公立",
    "縣市名稱": "[01]新北市",
    "地址": "[241]新北市三重區正義南路62號",
    "電話": "(02)29755352",
    "網址": "https://www.kses.ntpc.edu.tw",
    "備註": "",
    "latitude": 25.0593061,
    "longitude": 121.498533
  },
  {
    "學校名稱": "市立正義國小",
    "公/私立": "公立",
    "縣市名稱": "[01]新北市",
    "地址": "[241]新北市三重區信義西街31號",
    "電話": "(02)29853138",
    "網址": "https://www.jyes.ntpc.edu.tw",
    "備註": "",
    "latitude": 25.064469,
    "longitude": 121.4969463
  },
  {
    "學校名稱": "市立修德國小",
    "公/私立": "公立",
    "縣市名稱": "[01]新北市",
    "地址": "[241]新北市三重區重陽路三段3號",
    "電話": "(02)29800495",
    "網址": "https://www.sude.ntpc.edu.tw",
    "備註": "",
    "latitude": 25.0663047,
    "longitude": 121.4889333
  },
  {
    "學校名稱": "市立二重國小",
    "公/私立": "公立",
    "縣市名稱": "[01]新北市",
    "地址": "[241]新北市三重區二重里大有街10號",
    "電話": "(02)29846446",
    "網址": "https://www.eces.ntpc.edu.tw",
    "備註": "",
    "latitude": 25.061486,
    "longitude": 121.488102
  },
  {
    "學校名稱": "市立興穀國小",
    "公/私立": "公立",
    "縣市名稱": "[01]新北市",
    "地址": "[241]新北市三重區神農街101號",
    "電話": "(02)29990725",
    "網址": "https://www.skps.ntpc.edu.tw",
    "備註": "",
    "latitude": 25.0535979,
    "longitude": 121.4741263
  },
  {
    "學校名稱": "市立興化國小",
    "公/私立": "公立",
    "縣市名稱": "[01]新北市",
    "地址": "[248]新北市新莊區福興里五工二路50巷2號",
    "電話": "(02)22991001",
    "網址": "https://www.tshes.ntpc.edu.tw",
    "備註": "",
    "latitude": 25.0357722,
    "longitude": 121.4502478
  },
  {
    "學校名稱": "市立中山國小",
    "公/私立": "公立",
    "縣市名稱": "[01]新北市",
    "地址": "[220]新北市板橋區大觀路二段59巷31號",
    "電話": "(02)22755313",
    "網址": "https://www.jshps.ntpc.edu.tw",
    "備註": "",
    "latitude": 25.0026748,
    "longitude": 121.4466055
  },
  {
    "學校名稱": "市立三多國小",
    "公/私立": "公立",
    "縣市名稱": "[01]新北市",
    "地址": "[238]新北市樹林區三福街52號",
    "電話": "(02)26880698",
    "網址": "https://www.sdes.ntpc.edu.tw",
    "備註": "",
    "latitude": 24.9907063,
    "longitude": 121.4205326
  },
  {
    "學校名稱": "市立實踐國小",
    "公/私立": "公立",
    "縣市名稱": "[01]新北市",
    "地址": "[220]新北市板橋區實踐路93巷51號",
    "電話": "(02)29531233",
    "網址": "https://www.sjps.ntpc.edu.tw",
    "備註": "",
    "latitude": 25.0050306,
    "longitude": 121.4659979
  },
  {
    "學校名稱": "市立大觀國小",
    "公/私立": "公立",
    "縣市名稱": "[01]新北市",
    "地址": "[220]新北市板橋區大觀路一段30號",
    "電話": "(02)29603373",
    "網址": "https://www.tgps.ntpc.edu.tw",
    "備註": "",
    "latitude": 25.0075837,
    "longitude": 121.4479388
  },
  {
    "學校名稱": "市立溪洲國小",
    "公/私立": "公立",
    "縣市名稱": "[01]新北市",
    "地址": "[220]新北市板橋區金門街289號",
    "電話": "(02)26867705",
    "網址": "https://www.sips.ntpc.edu.tw",
    "備註": "",
    "latitude": 24.9879386,
    "longitude": 121.4311605
  },
  {
    "學校名稱": "市立信義國小",
    "公/私立": "公立",
    "縣市名稱": "[01]新北市",
    "地址": "[220]新北市板橋區四川路二段245巷60號",
    "電話": "(02)89667817",
    "網址": "https://www.thyes.ntpc.edu.tw",
    "備註": "",
    "latitude": 35.7512814,
    "longitude": 139.7087794
  },
  {
    "學校名稱": "市立重慶國小",
    "公/私立": "公立",
    "縣市名稱": "[01]新北市",
    "地址": "[220]新北市板橋區廣和街31號",
    "電話": "(02)29565592",
    "網址": "https://www.cges.ntpc.edu.tw",
    "備註": "",
    "latitude": 24.9930905,
    "longitude": 121.462528
  },
  {
    "學校名稱": "市立樂利國小",
    "公/私立": "公立",
    "縣市名稱": "[01]新北市",
    "地址": "[236]新北市土城區裕生路65號",
    "電話": "(02)22662568",
    "網址": "https://www.llps.ntpc.edu.tw",
    "備註": "",
    "latitude": 24.9861187,
    "longitude": 121.44759
  },
  {
    "學校名稱": "市立安和國小",
    "公/私立": "公立",
    "縣市名稱": "[01]新北市",
    "地址": "[236]新北市土城區延和路23號",
    "電話": "(02)22603451",
    "網址": "https://www.anhoes.ntpc.edu.tw",
    "備註": "",
    "latitude": 24.9877472,
    "longitude": 121.4637445
  },
  {
    "學校名稱": "市立彭福國小",
    "公/私立": "公立",
    "縣市名稱": "[01]新北市",
    "地址": "[238]新北市樹林區忠孝街30號",
    "電話": "(02)86866589",
    "網址": "https://www.pfps.ntpc.edu.tw",
    "備註": "",
    "latitude": 24.9821204,
    "longitude": 121.4236705
  },
  {
    "學校名稱": "市立育林國小",
    "公/私立": "公立",
    "縣市名稱": "[01]新北市",
    "地址": "[238]新北市樹林區復興路395號",
    "電話": "(02)26832112",
    "網址": "https://www.yles.ntpc.edu.tw",
    "備註": "",
    "latitude": 24.9874488,
    "longitude": 121.4173461
  },
  {
    "學校名稱": "市立建國國小",
    "公/私立": "公立",
    "縣市名稱": "[01]新北市",
    "地址": "[239]新北市鶯歌區育英街2號",
    "電話": "(02)26709228",
    "網址": "https://web.ckps.ntpc.edu.tw",
    "備註": "",
    "latitude": 24.9521015,
    "longitude": 121.3472714
  },
  {
    "學校名稱": "市立安溪國小",
    "公/私立": "公立",
    "縣市名稱": "[01]新北市",
    "地址": "[237]新北市三峽區中華路42號",
    "電話": "(02)26731488",
    "網址": "https://www.ases.ntpc.edu.tw",
    "備註": "",
    "latitude": 24.9307289,
    "longitude": 121.3723683
  },
  {
    "學校名稱": "市立樟樹國小",
    "公/私立": "公立",
    "縣市名稱": "[01]新北市",
    "地址": "[221]新北市汐止區樟樹一路141巷2號",
    "電話": "(02)26421407",
    "網址": "https://www.tctes.ntpc.edu.tw",
    "備註": "",
    "latitude": 25.0664621,
    "longitude": 121.6411944
  },
  {
    "學校名稱": "市立金美國小",
    "公/私立": "公立",
    "縣市名稱": "[01]新北市",
    "地址": "[208]新北市金山區忠孝一路111號",
    "電話": "(02)24986503",
    "網址": "https://www.gmes.ntpc.edu.tw",
    "備註": "",
    "latitude": 25.2198701,
    "longitude": 121.6380846
  },
  {
    "學校名稱": "市立新和國小",
    "公/私立": "公立",
    "縣市名稱": "[01]新北市",
    "地址": "[231]新北市新店區安和路三段100號",
    "電話": "(02)29400170",
    "網址": "https://www.hhps.ntpc.edu.tw",
    "備註": "",
    "latitude": 24.9816566,
    "longitude": 121.5176406
  },
  {
    "學校名稱": "市立鄧公國小",
    "公/私立": "公立",
    "縣市名稱": "[01]新北市",
    "地址": "[251]新北市淡水區學府里學府路99號",
    "電話": "(02)26297121",
    "網址": "https://www.dkes.ntpc.edu.tw",
    "備註": "",
    "latitude": 25.1732677,
    "longitude": 121.4499048
  },
  {
    "學校名稱": "市立新興國小",
    "公/私立": "公立",
    "縣市名稱": "[01]新北市",
    "地址": "[251]新北市淡水區新興街123號",
    "電話": "(02)26203645",
    "網址": "https://www.shes.ntpc.edu.tw",
    "備註": "",
    "latitude": 25.1810636,
    "longitude": 121.4390726
  },
  {
    "學校名稱": "市立重陽國小",
    "公/私立": "公立",
    "縣市名稱": "[01]新北市",
    "地址": "[241]新北市三重區中正北路113號",
    "電話": "(02)29826272",
    "網址": "https://www.cyps.ntpc.edu.tw",
    "備註": "",
    "latitude": 25.060952,
    "longitude": 121.4926092
  },
  {
    "學校名稱": "市立五華國小",
    "公/私立": "公立",
    "縣市名稱": "[01]新北市",
    "地址": "[241]新北市三重區集賢路89號",
    "電話": "(02)28578087",
    "網址": "https://www.whes.ntpc.edu.tw",
    "備註": "",
    "latitude": 25.0897343,
    "longitude": 121.4887753
  },
  {
    "學校名稱": "市立成功國小",
    "公/私立": "公立",
    "縣市名稱": "[01]新北市",
    "地址": "[247]新北市蘆洲區長安街311號",
    "電話": "(02)22858998",
    "網址": "https://www.tces.ntpc.edu.tw",
    "備註": "",
    "latitude": 25.0826494,
    "longitude": 121.4596365
  },
  {
    "學校名稱": "市立仁愛國小",
    "公/私立": "公立",
    "縣市名稱": "[01]新北市",
    "地址": "[247]新北市蘆洲區民族路488號",
    "電話": "(02)22838815",
    "網址": "https://www.jaes.ntpc.edu.tw",
    "備註": "",
    "latitude": 25.0906488,
    "longitude": 121.4763538
  },
  {
    "學校名稱": "市立榮富國小",
    "公/私立": "公立",
    "縣市名稱": "[01]新北市",
    "地址": "[242]新北市新莊區中和街193號",
    "電話": "(02)22769020",
    "網址": "https://www.lfes.ntpc.edu.tw",
    "備註": "",
    "latitude": 25.0469146,
    "longitude": 121.4475694
  },
  {
    "學校名稱": "市立裕民國小",
    "公/私立": "公立",
    "縣市名稱": "[01]新北市",
    "地址": "[242]新北市新莊區裕民街123號",
    "電話": "(02)29062407",
    "網址": "https://www.ymes.ntpc.edu.tw",
    "備註": "",
    "latitude": 25.0251169,
    "longitude": 121.4189716
  },
  {
    "學校名稱": "市立新泰國小",
    "公/私立": "公立",
    "縣市名稱": "[01]新北市",
    "地址": "[242]新北市新莊區公園一路91號",
    "電話": "(02)29971005",
    "網址": "https://www.stps.ntpc.edu.tw",
    "備註": "",
    "latitude": 25.0375683,
    "longitude": 121.4435394
  },
  {
    "學校名稱": "市立中信國小",
    "公/私立": "公立",
    "縣市名稱": "[01]新北市",
    "地址": "[242]新北市新莊區中信街168號",
    "電話": "(02)85211131",
    "網址": "https://www.ches.ntpc.edu.tw",
    "備註": "",
    "latitude": 25.0593909,
    "longitude": 121.4467403
  },
  {
    "學校名稱": "市立德音國小",
    "公/私立": "公立",
    "縣市名稱": "[01]新北市",
    "地址": "[248]新北市五股區明德路2號",
    "電話": "(02)22924152",
    "網址": "https://www.tyes.ntpc.edu.tw",
    "備註": "",
    "latitude": 25.0712525,
    "longitude": 121.4340786
  },
  {
    "學校名稱": "市立麗園國小",
    "公/私立": "公立",
    "縣市名稱": "[01]新北市",
    "地址": "[244]新北市林口區忠孝路591號",
    "電話": "(02)26091061",
    "網址": "https://www.lyaes.ntpc.edu.tw",
    "備註": "",
    "latitude": 25.0706979,
    "longitude": 121.3700461
  },
  {
    "學校名稱": "市立北新國小",
    "公/私立": "公立",
    "縣市名稱": "[01]新北市",
    "地址": "[231]新北市新店區寶橋路8號",
    "電話": "(02)29189300",
    "網址": "https://www.tspes.ntpc.edu.tw",
    "備註": "",
    "latitude": 24.9788313,
    "longitude": 121.5514276
  },
  {
    "學校名稱": "市立同榮國小",
    "公/私立": "公立",
    "縣市名稱": "[01]新北市",
    "地址": "[243]新北市泰山區公園路33號",
    "電話": "(02)22968551",
    "網址": "https://www.tres.ntpc.edu.tw",
    "備註": "",
    "latitude": 25.0562449,
    "longitude": 121.4246593
  },
  {
    "學校名稱": "市立光復國小",
    "公/私立": "公立",
    "縣市名稱": "[01]新北市",
    "地址": "[235]新北市中和區光環路二段1號",
    "電話": "(02)32348654",
    "網址": "https://www.kfes.ntpc.edu.tw",
    "備註": "",
    "latitude": 25.0137084,
    "longitude": 121.4848869
  },
  {
    "學校名稱": "市立秀峰國小",
    "公/私立": "公立",
    "縣市名稱": "[01]新北市",
    "地址": "[221]新北市汐止區仁愛路90號",
    "電話": "(02)26480611",
    "網址": "https://www.sfps.ntpc.edu.tw",
    "備註": "",
    "latitude": 25.0650766,
    "longitude": 121.6641733
  },
  {
    "學校名稱": "市立金龍國小",
    "公/私立": "公立",
    "縣市名稱": "[01]新北市",
    "地址": "[221]新北市汐止區明峰街201號",
    "電話": "(02)26959941",
    "網址": "https://www.gdps.ntpc.edu.tw",
    "備註": "",
    "latitude": 25.0707089,
    "longitude": 121.6297601
  },
  {
    "學校名稱": "市立介壽國小",
    "公/私立": "公立",
    "縣市名稱": "[01]新北市",
    "地址": "[237]新北市三峽區大同路1號",
    "電話": "(02)26712392",
    "網址": "https://www.jses.ntpc.edu.tw",
    "備註": "",
    "latitude": 24.9269537,
    "longitude": 121.3744461
  },
  {
    "學校名稱": "市立昌平國小",
    "公/私立": "公立",
    "縣市名稱": "[01]新北市",
    "地址": "[242]新北市新莊區昌平街200號",
    "電話": "(02)85215492",
    "網址": "https://www.cpps.ntpc.edu.tw",
    "備註": "",
    "latitude": 25.0547993,
    "longitude": 121.4545753
  },
  {
    "學校名稱": "市立麗林國小",
    "公/私立": "公立",
    "縣市名稱": "[01]新北市",
    "地址": "[244]新北市林口區公園路46號",
    "電話": "(02)26008457",
    "網址": "https://www.lles.ntpc.edu.tw",
    "備註": "",
    "latitude": 25.0731862,
    "longitude": 121.3732104
  },
  {
    "學校名稱": "市立集美國小",
    "公/私立": "公立",
    "縣市名稱": "[01]新北市",
    "地址": "[241]新北市三重區集美街10號",
    "電話": "(02)89725390",
    "網址": "https://www.jmes.ntpc.edu.tw",
    "備註": "",
    "latitude": 25.0548063,
    "longitude": 121.4883516
  },
  {
    "學校名稱": "市立永吉國小",
    "公/私立": "公立",
    "縣市名稱": "[01]新北市",
    "地址": "[239]新北市鶯歌區德昌二街2號",
    "電話": "(02)26704177",
    "網址": "https://www.yces.ntpc.edu.tw",
    "備註": "",
    "latitude": 24.9572213,
    "longitude": 121.3331776
  },
  {
    "學校名稱": "市立大崁國小",
    "公/私立": "公立",
    "縣市名稱": "[01]新北市",
    "地址": "[249]新北市八里區忠八街2號",
    "電話": "(02)86305678",
    "網址": "https://www.tkes.ntpc.edu.tw",
    "備註": "",
    "latitude": 25.1612157,
    "longitude": 121.4194007
  },
  {
    "學校名稱": "市立中園國小",
    "公/私立": "公立",
    "縣市名稱": "[01]新北市",
    "地址": "[237]新北市三峽區弘園街22號",
    "電話": "(02)86712590",
    "網址": "https://www.jyps.ntpc.edu.tw",
    "備註": "",
    "latitude": 24.9275747,
    "longitude": 121.3669088
  },
  {
    "學校名稱": "市立昌福國小",
    "公/私立": "公立",
    "縣市名稱": "[01]新北市",
    "地址": "[239]新北市鶯歌區永明街22號",
    "電話": "(02)86773322",
    "網址": "https://www.cfps.ntpc.edu.tw",
    "備註": "",
    "latitude": 24.9561715,
    "longitude": 121.3396727
  },
  {
    "學校名稱": "市立忠義國小",
    "公/私立": "公立",
    "縣市名稱": "[01]新北市",
    "地址": "[247]新北市蘆洲區光榮路99號",
    "電話": "(02)22899591",
    "網址": "https://www.cyes.ntpc.edu.tw",
    "備註": "",
    "latitude": 25.0883363,
    "longitude": 121.4606608
  },
  {
    "學校名稱": "市立青山國(中)小",
    "公/私立": "公立",
    "縣市名稱": "[01]新北市",
    "地址": "[221]新北市汐止區莊敬街33號",
    "電話": "(02)26917875",
    "網址": "https://www.csjhs.ntpc.edu.tw",
    "備註": "",
    "latitude": 25.0613029,
    "longitude": 121.6564745
  },
  {
    "學校名稱": "市立義學國小",
    "公/私立": "公立",
    "縣市名稱": "[01]新北市",
    "地址": "[243]新北市泰山區民生路30號",
    "電話": "(02)22972048",
    "網址": "https://www.yses.ntpc.edu.tw",
    "備註": "",
    "latitude": 25.0492358,
    "longitude": 121.4334441
  },
  {
    "學校名稱": "市立達觀國(中)小",
    "公/私立": "公立",
    "縣市名稱": "[01]新北市",
    "地址": "[231]新北市新店區僑信路1號",
    "電話": "(02)22159013",
    "網址": "https://www.dgejh.ntpc.edu.tw",
    "備註": "",
    "latitude": 39.8859515,
    "longitude": 116.2920792
  },
  {
    "學校名稱": "市立桃子腳國(中)小",
    "公/私立": "公立",
    "縣市名稱": "[01]新北市",
    "地址": "[238]新北市樹林區學勤路555號",
    "電話": "(02)89703225",
    "網址": "https://www.tykjh.ntpc.edu.tw",
    "備註": "",
    "latitude": 24.9478819,
    "longitude": 121.3794122
  },
  {
    "學校名稱": "市立龍埔國小",
    "公/私立": "公立",
    "縣市名稱": "[01]新北市",
    "地址": "[237]新北市三峽區大學路6號",
    "電話": "(02)26745666",
    "網址": "https://www.lpes.ntpc.edu.tw",
    "備註": "",
    "latitude": 24.9440859,
    "longitude": 121.3743991
  },
  {
    "學校名稱": "市立頭湖國小",
    "公/私立": "公立",
    "縣市名稱": "[01]新北市",
    "地址": "[244]新北市林口區民權路101號",
    "電話": "(02)26080766",
    "網址": "https://www.thes.ntpc.edu.tw",
    "備註": "",
    "latitude": 25.0829104,
    "longitude": 121.3734081
  },
  {
    "學校名稱": "市立新市國小",
    "公/私立": "公立",
    "縣市名稱": "[01]新北市",
    "地址": "[251]新北市淡水區中山北路二段200號",
    "電話": "(02)26262141",
    "網址": "https://www.xses.ntpc.edu.tw",
    "備註": "",
    "latitude": 25.1852226,
    "longitude": 121.4442573
  },
  {
    "學校名稱": "市立松山國小",
    "公/私立": "公立",
    "縣市名稱": "[31]臺北市",
    "地址": "[105]臺北市松山區八德路四段746號",
    "電話": "(02)27672907",
    "網址": "https://www.ssps.tp.edu.tw",
    "備註": "",
    "latitude": 25.0498852,
    "longitude": 121.5772719
  },
  {
    "學校名稱": "市立西松國小",
    "公/私立": "公立",
    "縣市名稱": "[31]臺北市",
    "地址": "[105]臺北市松山區東光里三民路5號",
    "電話": "(02)27609221",
    "網址": "https://web.sups.tp.edu.tw",
    "備註": "",
    "latitude": 25.0498852,
    "longitude": 121.5772719
  },
  {
    "學校名稱": "市立敦化國小",
    "公/私立": "公立",
    "縣市名稱": "[31]臺北市",
    "地址": "[105]臺北市松山區中正里敦化北路2號",
    "電話": "(02)27414065",
    "網址": "https://www.thps.tp.edu.tw",
    "備註": "",
    "latitude": 25.0517444,
    "longitude": 121.5487088
  },
  {
    "學校名稱": "市立民生國小",
    "公/私立": "公立",
    "縣市名稱": "[31]臺北市",
    "地址": "[105]臺北市松山區敦化北路199巷18號",
    "電話": "(02)27122452",
    "網址": "https://www.msps.tp.edu.tw",
    "備註": "",
    "latitude": 25.0572144,
    "longitude": 121.550831
  },
  {
    "學校名稱": "市立民權國小",
    "公/私立": "公立",
    "縣市名稱": "[31]臺北市",
    "地址": "[105]臺北市松山區民權東路四段200號",
    "電話": "(02)27652327",
    "網址": "https://www.mqes.tp.edu.tw",
    "備註": "",
    "latitude": 25.0616454,
    "longitude": 121.5528015
  },
  {
    "學校名稱": "市立民族國小",
    "公/私立": "公立",
    "縣市名稱": "[31]臺北市",
    "地址": "[105]臺北市松山區民生東路4段97巷7號",
    "電話": "(02)27124872",
    "網址": "https://www.mces.tp.edu.tw",
    "備註": "",
    "latitude": 25.0589296,
    "longitude": 121.5519832
  },
  {
    "學校名稱": "市立三民國小",
    "公/私立": "公立",
    "縣市名稱": "[31]臺北市",
    "地址": "[105]臺北市松山區莊敬里民權東路五段1號",
    "電話": "(02)27646080",
    "網址": "https://web.smps.tp.edu.tw",
    "備註": "",
    "latitude": 25.0639743,
    "longitude": 121.5644303
  },
  {
    "學校名稱": "市立健康國小",
    "公/私立": "公立",
    "縣市名稱": "[31]臺北市",
    "地址": "[105]臺北市松山區延壽街168號",
    "電話": "(02)25282814",
    "網址": "https://www.jkes.tp.edu.tw",
    "備註": "",
    "latitude": 25.0567989,
    "longitude": 121.5625164
  },
  {
    "學校名稱": "市立興雅國小",
    "公/私立": "公立",
    "縣市名稱": "[32]臺北市",
    "地址": "[110]臺北市信義區雅祥里基隆路1段83巷9號",
    "電話": "(02)27618156",
    "網址": "https://www.hyps.tp.edu.tw",
    "備註": "",
    "latitude": 25.047424,
    "longitude": 121.5696557
  },
  {
    "學校名稱": "市立光復國小",
    "公/私立": "公立",
    "縣市名稱": "[32]臺北市",
    "地址": "[110]臺北市信義區光復南路271號",
    "電話": "(02)27585076",
    "網址": "https://www.kfps.tp.edu.tw",
    "備註": "",
    "latitude": 25.031365,
    "longitude": 121.5574781
  },
  {
    "學校名稱": "市立三興國小",
    "公/私立": "公立",
    "縣市名稱": "[32]臺北市",
    "地址": "[110]臺北市信義區景聯里基隆路2段99號",
    "電話": "(02)27385488",
    "網址": "https://www.shps.tp.edu.tw",
    "備註": "",
    "latitude": 25.0291701,
    "longitude": 121.5587105
  },
  {
    "學校名稱": "市立信義國小",
    "公/私立": "公立",
    "縣市名稱": "[32]臺北市",
    "地址": "[110]臺北市信義區松勤街60號",
    "電話": "(02)27204005",
    "網址": "https://www.syes.tp.edu.tw",
    "備註": "",
    "latitude": 25.0320877,
    "longitude": 121.5605024
  },
  {
    "學校名稱": "市立吳興國小",
    "公/私立": "公立",
    "縣市名稱": "[32]臺北市",
    "地址": "[110]臺北市信義區松仁路226號",
    "電話": "(02)27200226",
    "網址": "https://www.wsps.tp.edu.tw",
    "備註": "",
    "latitude": 25.0239103,
    "longitude": 121.5699454
  },
  {
    "學校名稱": "市立福德國小",
    "公/私立": "公立",
    "縣市名稱": "[32]臺北市",
    "地址": "[110]臺北市信義區中行里褔德街253號",
    "電話": "(02)27277992",
    "網址": "https://www.fdps.tp.edu.tw",
    "備註": "",
    "latitude": 25.0385388,
    "longitude": 121.5847051
  },
  {
    "學校名稱": "市立博愛國小",
    "公/私立": "公立",
    "縣市名稱": "[32]臺北市",
    "地址": "[110]臺北市信義區松仁路22鄰95巷20號",
    "電話": "(02)23450616",
    "網址": "https://www.baps.tp.edu.tw",
    "備註": "",
    "latitude": 25.0239103,
    "longitude": 121.5699454
  },
  {
    "學校名稱": "市立雙永國小",
    "公/私立": "公立",
    "縣市名稱": "[32]臺北市",
    "地址": "[110]臺北市信義區松山路287巷5號",
    "電話": "(02)87858111",
    "網址": "https://www.yyes.tp.edu.tw/nss/p/index",
    "備註": "",
    "latitude": 25.0428926,
    "longitude": 121.5793055
  },
  {
    "學校名稱": "國立臺北教大實小",
    "公/私立": "公立",
    "縣市名稱": "[33]臺北市",
    "地址": "[106]臺北市大安區龍淵里和平東路2段94號",
    "電話": "(02)27356186",
    "網址": "https://www.ntueees.tp.edu.tw",
    "備註": "",
    "latitude": 25.0242089,
    "longitude": 121.5404556
  },
  {
    "學校名稱": "私立立人國(中)小",
    "公/私立": "私立",
    "縣市名稱": "[33]臺北市",
    "地址": "[106]臺北市大安區義榮里安和路二段99號",
    "電話": "(02)27361388",
    "網址": "http://www.ljjhps.tp.edu.tw",
    "備註": "",
    "latitude": 25.0308137,
    "longitude": 121.5523793
  },
  {
    "學校名稱": "私立新民小學",
    "公/私立": "私立",
    "縣市名稱": "[33]臺北市",
    "地址": "[106]臺北市大安區龍坡里辛亥路1段113號",
    "電話": "(02)23630450",
    "網址": "https://www.hmps.tp.edu.tw",
    "備註": "",
    "latitude": 25.022496,
    "longitude": 121.5319488
  },
  {
    "學校名稱": "市立龍安國小",
    "公/私立": "公立",
    "縣市名稱": "[33]臺北市",
    "地址": "[106]臺北市大安區龍門里新生南路3段33號",
    "電話": "(02)23632077",
    "網址": "https://www.laes.tp.edu.tw",
    "備註": "",
    "latitude": 25.0233477,
    "longitude": 121.5353043
  },
  {
    "學校名稱": "市立大安國小",
    "公/私立": "公立",
    "縣市名稱": "[33]臺北市",
    "地址": "[106]臺北市大安區芳和里臥龍街129號",
    "電話": "(02)27322332",
    "網址": "https://www.taes.tp.edu.tw",
    "備註": "",
    "latitude": 25.0189434,
    "longitude": 121.548545
  },
  {
    "學校名稱": "市立幸安國小",
    "公/私立": "公立",
    "縣市名稱": "[33]臺北市",
    "地址": "[106]臺北市大安區民炤里仁愛路3段22號",
    "電話": "(02)27074191",
    "網址": "https://www.haps.tp.edu.tw",
    "備註": "",
    "latitude": 25.0377479,
    "longitude": 121.533251
  },
  {
    "學校名稱": "市立建安國小",
    "公/私立": "公立",
    "縣市名稱": "[33]臺北市",
    "地址": "[106]臺北市大安區龍雲里大安路2段99號",
    "電話": "(02)27077119",
    "網址": "https://www.jnps.tp.edu.tw",
    "備註": "",
    "latitude": 25.0303057,
    "longitude": 121.5470257
  },
  {
    "學校名稱": "市立仁愛國小",
    "公/私立": "公立",
    "縣市名稱": "[33]臺北市",
    "地址": "[106]臺北市大安區敦安里安和路1段60號",
    "電話": "(02)27095010",
    "網址": "https://www.japs.tp.edu.tw",
    "備註": "",
    "latitude": 25.0359925,
    "longitude": 121.5513502
  },
  {
    "學校名稱": "市立金華國小",
    "公/私立": "公立",
    "縣市名稱": "[33]臺北市",
    "地址": "[106]臺北市大安區永康里愛國東路79巷11號",
    "電話": "(02)23917402",
    "網址": "https://www.cups.tp.edu.tw",
    "備註": "",
    "latitude": 25.0323924,
    "longitude": 121.5282988
  },
  {
    "學校名稱": "市立古亭國小",
    "公/私立": "公立",
    "縣市名稱": "[33]臺北市",
    "地址": "[106]臺北市大安區古風里羅斯福路3段201號",
    "電話": "(02)23639795",
    "網址": "https://www.gtes.tp.edu.tw",
    "備註": "",
    "latitude": 25.0210342,
    "longitude": 121.5293258
  },
  {
    "學校名稱": "市立銘傳國小",
    "公/私立": "公立",
    "縣市名稱": "[33]臺北市",
    "地址": "[106]臺北市大安區農場里羅斯褔路四段21號",
    "電話": "(02)23639815",
    "網址": "https://www.mhps.tp.edu.tw",
    "備註": "",
    "latitude": 35.0247285,
    "longitude": 135.7535091
  },
  {
    "學校名稱": "市立公館國小",
    "公/私立": "公立",
    "縣市名稱": "[33]臺北市",
    "地址": "[106]臺北市大安區基隆路4段41巷68弄2號",
    "電話": "(02)27351734",
    "網址": "https://www.gges.tp.edu.tw",
    "備註": "",
    "latitude": 25.0134549,
    "longitude": 121.543219
  },
  {
    "學校名稱": "市立新生國小",
    "公/私立": "公立",
    "縣市名稱": "[33]臺北市",
    "地址": "[106]臺北市大安區新生南路二段36號",
    "電話": "(02)23913122",
    "網址": "https://web.snes.tp.edu.tw",
    "備註": "",
    "latitude": 25.033345,
    "longitude": 121.5326848
  },
  {
    "學校名稱": "市立和平實驗國小",
    "公/私立": "公立",
    "縣市名稱": "[33]臺北市",
    "地址": "[106]臺北市大安區敦南街76巷28號",
    "電話": "(02)27335900",
    "網址": "https://www.hpees.tp.edu.tw",
    "備註": "",
    "latitude": 25.0206169,
    "longitude": 121.5467778
  },
  {
    "學校名稱": "市立中山國小",
    "公/私立": "公立",
    "縣市名稱": "[34]臺北市",
    "地址": "[104]臺北市中山區恆安里民權東路1段69號",
    "電話": "(02)25914085",
    "網址": "https://www.csps.tp.edu.tw",
    "備註": "",
    "latitude": 25.0637689,
    "longitude": 121.5264301
  },
  {
    "學校名稱": "市立中正國小",
    "公/私立": "公立",
    "縣市名稱": "[34]臺北市",
    "地址": "[104]臺北市中山區力行里龍江路62號",
    "電話": "(02)25070932",
    "網址": "https://www.jjes.tp.edu.tw",
    "備註": "",
    "latitude": 25.0509348,
    "longitude": 121.5394079
  },
  {
    "學校名稱": "市立長安國小",
    "公/私立": "公立",
    "縣市名稱": "[34]臺北市",
    "地址": "[104]臺北市中山區興亞里吉林路15號",
    "電話": "(02)25617600",
    "網址": "https://www.caps.tp.edu.tw",
    "備註": "",
    "latitude": 25.0494981,
    "longitude": 121.5307076
  },
  {
    "學校名稱": "市立長春國小",
    "公/私立": "公立",
    "縣市名稱": "[34]臺北市",
    "地址": "[104]臺北市中山區中央里長春路165號",
    "電話": "(02)25024366",
    "網址": "https://www.ccps.tp.edu.tw",
    "備註": "",
    "latitude": 25.0561836,
    "longitude": 121.5351435
  },
  {
    "學校名稱": "市立大直國小",
    "公/私立": "公立",
    "縣市名稱": "[34]臺北市",
    "地址": "[104]臺北市中山區大直里大直街2號",
    "電話": "(02)25333953",
    "網址": "https://www.tzes.tp.edu.tw",
    "備註": "",
    "latitude": 25.084476,
    "longitude": 121.5454056
  },
  {
    "學校名稱": "市立大佳國小",
    "公/私立": "公立",
    "縣市名稱": "[34]臺北市",
    "地址": "[104]臺北市中山區大佳里6鄰濱江街107號",
    "電話": "(02)25035816",
    "網址": "https://www.djes.tp.edu.tw",
    "備註": "",
    "latitude": 25.0643611,
    "longitude": 121.533468
  },
  {
    "學校名稱": "市立五常國小",
    "公/私立": "公立",
    "縣市名稱": "[34]臺北市",
    "地址": "[104]臺北市中山區下埤里五常街16號",
    "電話": "(02)25023416",
    "網址": "https://www.wcps.tp.edu.tw",
    "備註": "",
    "latitude": 25.0643611,
    "longitude": 121.533468
  },
  {
    "學校名稱": "市立吉林國小",
    "公/私立": "公立",
    "縣市名稱": "[34]臺北市",
    "地址": "[104]臺北市中山區中原里長春路116號",
    "電話": "(02)25219196",
    "網址": "https://www.clps.tp.edu.tw",
    "備註": "",
    "latitude": 25.0543159,
    "longitude": 121.5292976
  },
  {
    "學校名稱": "市立懷生國小",
    "公/私立": "公立",
    "縣市名稱": "[34]臺北市",
    "地址": "[104]臺北市中山區埤頭里安東街16巷2號",
    "電話": "(02)27710846",
    "網址": "https://www.wses.tp.edu.tw",
    "備註": "",
    "latitude": 25.0452969,
    "longitude": 121.5407858
  },
  {
    "學校名稱": "市立永安國小",
    "公/私立": "公立",
    "縣市名稱": "[34]臺北市",
    "地址": "[104]臺北市中山區明水路397巷19弄1號",
    "電話": "(02)25335672",
    "網址": "https://www.yaes.tp.edu.tw",
    "備註": "",
    "latitude": 25.0776244,
    "longitude": 121.5417855
  },
  {
    "學校名稱": "市立濱江國小",
    "公/私立": "公立",
    "縣市名稱": "[34]臺北市",
    "地址": "[104]臺北市中山區樂群二路266巷99號",
    "電話": "(02)85021571",
    "網址": "https://www.bjes.tp.edu.tw",
    "備註": "",
    "latitude": 25.0783444,
    "longitude": 121.5618076
  },
  {
    "學校名稱": "市立螢橋國小",
    "公/私立": "公立",
    "縣市名稱": "[35]臺北市",
    "地址": "[100]臺北市中正區螢雪里詔安街29號",
    "電話": "(02)23054620",
    "網址": "https://www.yces.tp.edu.tw",
    "備註": "",
    "latitude": 25.0252613,
    "longitude": 121.5129352
  },
  {
    "學校名稱": "市立河堤國小",
    "公/私立": "公立",
    "縣市名稱": "[35]臺北市",
    "地址": "[100]臺北市中正區汀州路二段180號",
    "電話": "(02)23677144",
    "網址": "https://www.htps.tp.edu.tw",
    "備註": "",
    "latitude": 25.0249015,
    "longitude": 121.5196208
  },
  {
    "學校名稱": "市立忠義實驗國小",
    "公/私立": "公立",
    "縣市名稱": "[35]臺北市",
    "地址": "[100]臺北市中正區中華路二段307巷17號",
    "電話": "(02)23038752",
    "網址": "https://www.cips.tp.edu.tw",
    "備註": "",
    "latitude": 25.0291984,
    "longitude": 121.5058942
  },
  {
    "學校名稱": "市立國語實小",
    "公/私立": "公立",
    "縣市名稱": "[35]臺北市",
    "地址": "[100]臺北市中正區龍光里南海路58號",
    "電話": "(02)23033555",
    "網址": "https://www.meps.tp.edu.tw",
    "備註": "",
    "latitude": 25.0302718,
    "longitude": 121.5126777
  },
  {
    "學校名稱": "市立南門國小",
    "公/私立": "公立",
    "縣市名稱": "[35]臺北市",
    "地址": "[100]臺北市中正區南門里廣州街6號",
    "電話": "(02)23715052",
    "網址": "https://www.nmes.tp.edu.tw",
    "備註": "",
    "latitude": 25.0342751,
    "longitude": 121.5089578
  },
  {
    "學校名稱": "市立東門國小",
    "公/私立": "公立",
    "縣市名稱": "[35]臺北市",
    "地址": "[100]臺北市中正區東門里仁愛路一段2-4號",
    "電話": "(02)23412822",
    "網址": "https://www.tmps.tp.edu.tw",
    "備註": "",
    "latitude": 25.0383307,
    "longitude": 121.5204463
  },
  {
    "學校名稱": "市立忠孝國小",
    "公/私立": "公立",
    "縣市名稱": "[35]臺北市",
    "地址": "[100]臺北市中正區梅花里忠孝東路2段101號",
    "電話": "(02)23918170",
    "網址": "https://www.ches.tp.edu.tw",
    "備註": "",
    "latitude": 25.0429427,
    "longitude": 121.5317807
  },
  {
    "學校名稱": "臺北市立大學附小",
    "公/私立": "公立",
    "縣市名稱": "[35]臺北市",
    "地址": "[100]臺北市中正區建國里公園路29號",
    "電話": "(02)23110395",
    "網址": "https://www.esut.tp.edu.tw",
    "備註": "",
    "latitude": 25.0360153,
    "longitude": 121.5158565
  },
  {
    "學校名稱": "市立蓬萊國小",
    "公/私立": "公立",
    "縣市名稱": "[36]臺北市",
    "地址": "[103]臺北市大同區星明里寧夏路35號",
    "電話": "(02)25569835",
    "網址": "https://www.plps.tp.edu.tw",
    "備註": "",
    "latitude": 25.0580151,
    "longitude": 121.5158165
  },
  {
    "學校名稱": "市立日新國小",
    "公/私立": "公立",
    "縣市名稱": "[36]臺北市",
    "地址": "[103]臺北市大同區星明里太原路151號",
    "電話": "(02)25584819",
    "網址": "https://www.zhps.tp.edu.tw",
    "備註": "",
    "latitude": 25.0542167,
    "longitude": 121.5170792
  },
  {
    "學校名稱": "市立太平國小",
    "公/私立": "公立",
    "縣市名稱": "[36]臺北市",
    "地址": "[103]臺北市大同區南芳里延平北路2段239號",
    "電話": "(02)25532229",
    "網址": "https://www.tpes.tp.edu.tw",
    "備註": "",
    "latitude": 25.0617015,
    "longitude": 121.5123616
  },
  {
    "學校名稱": "市立永樂國小",
    "公/私立": "公立",
    "縣市名稱": "[36]臺北市",
    "地址": "[103]臺北市大同區南芳里延平北路2段266號",
    "電話": "(02)25534882",
    "網址": "https://www.ylps.tp.edu.tw",
    "備註": "",
    "latitude": 25.0617015,
    "longitude": 121.5123616
  },
  {
    "學校名稱": "市立雙蓮國小",
    "公/私立": "公立",
    "縣市名稱": "[36]臺北市",
    "地址": "[103]臺北市大同區民權里錦西街51號",
    "電話": "(02)25570309",
    "網址": "https://www.sles.tp.edu.tw",
    "備註": "",
    "latitude": 25.0606005,
    "longitude": 121.5168131
  },
  {
    "學校名稱": "市立大同國小",
    "公/私立": "公立",
    "縣市名稱": "[36]臺北市",
    "地址": "[103]臺北市大同區蓬萊里大龍街51號",
    "電話": "(02)25965407",
    "網址": "https://web.ttps.tp.edu.tw",
    "備註": "",
    "latitude": 25.0650335,
    "longitude": 121.5169016
  },
  {
    "學校名稱": "市立大龍國小",
    "公/私立": "公立",
    "縣市名稱": "[36]臺北市",
    "地址": "[103]臺北市大同區保安里哈密街47號",
    "電話": "(02)25942635",
    "網址": "https://www.dlps.tp.edu.tw",
    "備註": "",
    "latitude": 25.0739371,
    "longitude": 121.5165928
  },
  {
    "學校名稱": "市立延平國小",
    "公/私立": "公立",
    "縣市名稱": "[36]臺北市",
    "地址": "[103]臺北市大同區昌吉街97號",
    "電話": "(02)25942439",
    "網址": "https://www.ypps.tp.edu.tw",
    "備註": "",
    "latitude": 25.0659303,
    "longitude": 121.5112523
  },
  {
    "學校名稱": "市立大橋國小",
    "公/私立": "公立",
    "縣市名稱": "[36]臺北市",
    "地址": "[103]臺北市大同區隆和里重慶北路3段2號",
    "電話": "(02)25944413",
    "網址": "https://www.tjps.tp.edu.tw",
    "備註": "",
    "latitude": 25.0640756,
    "longitude": 121.5128003
  },
  {
    "學校名稱": "私立光仁小學",
    "公/私立": "私立",
    "縣市名稱": "[37]臺北市",
    "地址": "[108]臺北市萬華區壽德里萬大路423巷15號",
    "電話": "(02)23032874",
    "網址": "http://www.kjes.tp.edu.tw",
    "備註": "",
    "latitude": 25.0216991,
    "longitude": 121.4995056
  },
  {
    "學校名稱": "市立新和國小",
    "公/私立": "公立",
    "縣市名稱": "[37]臺北市",
    "地址": "[108]臺北市萬華區西藏路125巷31號",
    "電話": "(02)23038298",
    "網址": "https://www.soes.tp.edu.tw",
    "備註": "",
    "latitude": 25.0274495,
    "longitude": 121.5028745
  },
  {
    "學校名稱": "市立雙園國小",
    "公/私立": "公立",
    "縣市名稱": "[37]臺北市",
    "地址": "[108]臺北市萬華區雙園里莒光路315號",
    "電話": "(02)23061893",
    "網址": "https://www.syps.tp.edu.tw",
    "備註": "",
    "latitude": 25.0301599,
    "longitude": 121.4982564
  },
  {
    "學校名稱": "市立東園國小",
    "公/私立": "公立",
    "縣市名稱": "[37]臺北市",
    "地址": "[108]臺北市萬華區全德里東園街195號",
    "電話": "(02)23034803",
    "網址": "https://www.tyes.tp.edu.tw",
    "備註": "",
    "latitude": 25.023173,
    "longitude": 121.4984515
  },
  {
    "學校名稱": "市立大理國小",
    "公/私立": "公立",
    "縣市名稱": "[37]臺北市",
    "地址": "[108]臺北市萬華區綠堤里艋舺大道389號",
    "電話": "(02)23064311",
    "網址": "https://www.tlps.tp.edu.tw",
    "備註": "",
    "latitude": 25.0318843,
    "longitude": 121.4930718
  },
  {
    "學校名稱": "市立西園國小",
    "公/私立": "公立",
    "縣市名稱": "[37]臺北市",
    "地址": "[108]臺北市萬華區日善里東園街73巷65號",
    "電話": "(02)23030257",
    "網址": "https://www.hups.tp.edu.tw",
    "備註": "",
    "latitude": 25.0269707,
    "longitude": 121.4988912
  },
  {
    "學校名稱": "市立萬大國小",
    "公/私立": "公立",
    "縣市名稱": "[37]臺北市",
    "地址": "[108]臺北市萬華區全德里萬大路346號",
    "電話": "(02)23037654",
    "網址": "https://www.wtps.tp.edu.tw",
    "備註": "",
    "latitude": 25.0279254,
    "longitude": 121.5003433
  },
  {
    "學校名稱": "市立華江國小",
    "公/私立": "公立",
    "縣市名稱": "[37]臺北市",
    "地址": "[108]臺北市萬華區環河南路2段250巷42弄2號",
    "電話": "(02)23064352",
    "網址": "https://www.hces.tp.edu.tw",
    "備註": "",
    "latitude": 25.0341252,
    "longitude": 121.4911371
  },
  {
    "學校名稱": "市立西門國小",
    "公/私立": "公立",
    "縣市名稱": "[37]臺北市",
    "地址": "[108]臺北市萬華區西門里成都路98號",
    "電話": "(02)23113519",
    "網址": "https://www.hmes.tp.edu.tw",
    "備註": "",
    "latitude": 25.0427757,
    "longitude": 121.5033766
  },
  {
    "學校名稱": "市立老松國小",
    "公/私立": "公立",
    "縣市名稱": "[37]臺北市",
    "地址": "[108]臺北市萬華區福音里桂林路64號",
    "電話": "(02)23361266",
    "網址": "https://web.tlsps.tp.edu.tw",
    "備註": "",
    "latitude": 25.0375356,
    "longitude": 121.502687
  },
  {
    "學校名稱": "市立龍山國小",
    "公/私立": "公立",
    "縣市名稱": "[37]臺北市",
    "地址": "[108]臺北市萬華區青山里和平西路三段235號",
    "電話": "(02)23082977",
    "網址": "https://www.lses.tp.edu.tw",
    "備註": "",
    "latitude": 25.0353006,
    "longitude": 121.5002984
  },
  {
    "學校名稱": "市立福星國小",
    "公/私立": "公立",
    "縣市名稱": "[37]臺北市",
    "地址": "[108]臺北市萬華區福星里中華路一段66號",
    "電話": "(02)23144668",
    "網址": "https://www.fhps.tp.edu.tw",
    "備註": "",
    "latitude": 25.04683,
    "longitude": 121.5081697
  },
  {
    "學校名稱": "國立政大實小",
    "公/私立": "公立",
    "縣市名稱": "[38]臺北市",
    "地址": "[116]臺北市文山區指南路三段12號",
    "電話": "(02)29393610",
    "網址": "https://www.es.nccu.edu.tw",
    "備註": "",
    "latitude": 24.9702843,
    "longitude": 121.6072908
  },
  {
    "學校名稱": "私立中山小學",
    "公/私立": "私立",
    "縣市名稱": "[38]臺北市",
    "地址": "[116]臺北市文山區木柵路一段292號",
    "電話": "(02)29360935",
    "網址": "https://www.mjcskg.tp.edu.tw",
    "備註": "",
    "latitude": 24.9872777,
    "longitude": 121.5488326
  },
  {
    "學校名稱": "私立再興小學",
    "公/私立": "私立",
    "縣市名稱": "[38]臺北市",
    "地址": "[116]臺北市文山區明義里興隆路4段2號",
    "電話": "(02)29371118",
    "網址": "https://www.tsps.tp.edu.tw/nss/p/index",
    "備註": "",
    "latitude": 24.9900011,
    "longitude": 121.5576329
  },
  {
    "學校名稱": "市立景美國小",
    "公/私立": "公立",
    "縣市名稱": "[38]臺北市",
    "地址": "[116]臺北市文山區景行里景文街108號",
    "電話": "(02)29322151",
    "網址": "https://www.cmes.tp.edu.tw",
    "備註": "",
    "latitude": 24.9891408,
    "longitude": 121.5402599
  },
  {
    "學校名稱": "市立武功國小",
    "公/私立": "公立",
    "縣市名稱": "[38]臺北市",
    "地址": "[116]臺北市文山區萬祥里興隆路1段68號",
    "電話": "(02)29314360",
    "網址": "http://www.wkps.tp.edu.tw",
    "備註": "",
    "latitude": 25.0036219,
    "longitude": 121.5396805
  },
  {
    "學校名稱": "市立興德國小",
    "公/私立": "公立",
    "縣市名稱": "[38]臺北市",
    "地址": "[116]臺北市文山區興邦里興隆路2段235號",
    "電話": "(02)29329431",
    "網址": "https://www.hdps.tp.edu.tw",
    "備註": "",
    "latitude": 25.0018594,
    "longitude": 121.5508518
  },
  {
    "學校名稱": "市立溪口國小",
    "公/私立": "公立",
    "縣市名稱": "[38]臺北市",
    "地址": "[116]臺北市文山區景慶里景福街225號",
    "電話": "(02)29350955",
    "網址": "https://www.skps.tp.edu.tw",
    "備註": "",
    "latitude": 34.9381934,
    "longitude": 135.756926
  },
  {
    "學校名稱": "市立興隆國小",
    "公/私立": "公立",
    "縣市名稱": "[38]臺北市",
    "地址": "[116]臺北市文山區興望里福興路2號",
    "電話": "(02)29323131",
    "網址": "https://www.hlps.tp.edu.tw",
    "備註": "",
    "latitude": 25.0051675,
    "longitude": 121.5502642
  },
  {
    "學校名稱": "市立志清國小",
    "公/私立": "公立",
    "縣市名稱": "[38]臺北市",
    "地址": "[116]臺北市文山區景仁里景福街21巷5號",
    "電話": "(02)29323875",
    "網址": "https://www.jcps.tp.edu.tw",
    "備註": "",
    "latitude": 24.9983378,
    "longitude": 121.53905
  },
  {
    "學校名稱": "市立景興國小",
    "公/私立": "公立",
    "縣市名稱": "[38]臺北市",
    "地址": "[116]臺北市文山區興安里景華街150巷21號",
    "電話": "(02)29329439",
    "網址": "https://www.chps.tp.edu.tw",
    "備註": "",
    "latitude": 24.9962908,
    "longitude": 121.5487881
  },
  {
    "學校名稱": "市立木柵國小",
    "公/私立": "公立",
    "縣市名稱": "[38]臺北市",
    "地址": "[116]臺北市文山區木柵里木柵路3段191號",
    "電話": "(02)29391234",
    "網址": "https://www.mjes.tp.edu.tw",
    "備註": "",
    "latitude": 24.9896445,
    "longitude": 121.569866
  },
  {
    "學校名稱": "市立永建國小",
    "公/私立": "公立",
    "縣市名稱": "[38]臺北市",
    "地址": "[116]臺北市文山區木柵路1段311巷1號",
    "電話": "(02)29377199",
    "網址": "https://www.yjps.tp.edu.tw",
    "備註": "",
    "latitude": 24.9890422,
    "longitude": 121.5559037
  },
  {
    "學校名稱": "市立實踐國小",
    "公/私立": "公立",
    "縣市名稱": "[38]臺北市",
    "地址": "[116]臺北市文山區樟文里忠順街1段4號",
    "電話": "(02)29360725",
    "網址": "https://www.zjps.tp.edu.tw",
    "備註": "",
    "latitude": 24.9830938,
    "longitude": 121.5573738
  },
  {
    "學校名稱": "市立博嘉實驗國小",
    "公/私立": "公立",
    "縣市名稱": "[38]臺北市",
    "地址": "[116]臺北市文山區木柵路4段159巷14-1號",
    "電話": "(02)22302585",
    "網址": "https://www.bjps.tp.edu.tw",
    "備註": "",
    "latitude": 24.9932924,
    "longitude": 121.5714861
  },
  {
    "學校名稱": "市立指南實小",
    "公/私立": "公立",
    "縣市名稱": "[38]臺北市",
    "地址": "[116]臺北市文山區指南路三段38巷5-2號",
    "電話": "(02)29393546",
    "網址": "http://www.cnps.tp.edu.tw",
    "備註": "",
    "latitude": 24.9702843,
    "longitude": 121.6072908
  },
  {
    "學校名稱": "市立明道國小",
    "公/私立": "公立",
    "縣市名稱": "[38]臺北市",
    "地址": "[116]臺北市文山區明興里木柵路2段138巷61號",
    "電話": "(02)29392821",
    "網址": "https://www.mdps.tp.edu.tw",
    "備註": "",
    "latitude": 24.9874971,
    "longitude": 121.5634769
  },
  {
    "學校名稱": "市立萬芳國小",
    "公/私立": "公立",
    "縣市名稱": "[38]臺北市",
    "地址": "[116]臺北市文山區萬芳里萬和街1號",
    "電話": "(02)22301232",
    "網址": "https://www.wfes.tp.edu.tw",
    "備註": "",
    "latitude": 25.0004084,
    "longitude": 121.5675819
  },
  {
    "學校名稱": "市立力行國小",
    "公/私立": "公立",
    "縣市名稱": "[38]臺北市",
    "地址": "[116]臺北市文山區樟腳里木新路3段155巷7號",
    "電話": "(02)29363995",
    "網址": "https://www.lsps.tp.edu.tw",
    "備註": "",
    "latitude": 24.9809136,
    "longitude": 121.5604887
  },
  {
    "學校名稱": "市立萬興國小",
    "公/私立": "公立",
    "縣市名稱": "[38]臺北市",
    "地址": "[116]臺北市文山區萬興里秀明路2段114號",
    "電話": "(02)29381721",
    "網址": "https://www.wxes.tp.edu.tw",
    "備註": "",
    "latitude": 24.9899261,
    "longitude": 121.576137
  },
  {
    "學校名稱": "市立萬福國小",
    "公/私立": "公立",
    "縣市名稱": "[38]臺北市",
    "地址": "[116]臺北市文山區羅斯福路5段170巷32號",
    "電話": "(02)29353123",
    "網址": "https://www.wfps.tp.edu.tw",
    "備註": "",
    "latitude": 25.0046797,
    "longitude": 121.5372524
  },
  {
    "學校名稱": "市立興華國小",
    "公/私立": "公立",
    "縣市名稱": "[38]臺北市",
    "地址": "[116]臺北市文山區興光里興隆路3段125巷6號",
    "電話": "(02)22393070",
    "網址": "https://www.hhps.tp.edu.tw",
    "備註": "",
    "latitude": 24.9995188,
    "longitude": 121.5593441
  },
  {
    "學校名稱": "市立辛亥國小",
    "公/私立": "公立",
    "縣市名稱": "[38]臺北市",
    "地址": "[116]臺北市文山區興昌里辛亥路4段103號",
    "電話": "(02)29357282",
    "網址": "http://www.saes.nss.tp.edu.tw",
    "備註": "",
    "latitude": 25.0061811,
    "longitude": 121.5592672
  },
  {
    "學校名稱": "市立南港國小",
    "公/私立": "公立",
    "縣市名稱": "[39]臺北市",
    "地址": "[115]臺北市南港區三重里惠民街67號",
    "電話": "(02)27834678",
    "網址": "http://w3.nkps.nss.tp.edu.tw",
    "備註": "",
    "latitude": 25.0545779,
    "longitude": 121.6065999
  },
  {
    "學校名稱": "市立舊莊國小",
    "公/私立": "公立",
    "縣市名稱": "[39]臺北市",
    "地址": "[115]臺北市南港區舊莊里舊莊街1段100號",
    "電話": "(02)27821418",
    "網址": "https://www.zzes.tp.edu.tw",
    "備註": "",
    "latitude": 25.037192,
    "longitude": 121.6238646
  },
  {
    "學校名稱": "市立玉成國小",
    "公/私立": "公立",
    "縣市名稱": "[39]臺北市",
    "地址": "[115]臺北市南港區西新里向陽路31號",
    "電話": "(02)27836049",
    "網址": "https://www.yhes.tp.edu.tw",
    "備註": "",
    "latitude": 25.0523622,
    "longitude": 121.5944059
  },
  {
    "學校名稱": "市立成德國小",
    "公/私立": "公立",
    "縣市名稱": "[39]臺北市",
    "地址": "[115]臺北市南港區聯成里東新街65號",
    "電話": "(02)27851376",
    "網址": "https://www.ctps.tp.edu.tw",
    "備註": "",
    "latitude": 25.0467789,
    "longitude": 121.5873025
  },
  {
    "學校名稱": "市立胡適國小",
    "公/私立": "公立",
    "縣市名稱": "[39]臺北市",
    "地址": "[115]臺北市南港區中研里舊莊街1段1號",
    "電話": "(02)27824949",
    "網址": "https://www.hsps.tp.edu.tw",
    "備註": "",
    "latitude": 25.0406642,
    "longitude": 121.6192444
  },
  {
    "學校名稱": "市立東新國小",
    "公/私立": "公立",
    "縣市名稱": "[39]臺北市",
    "地址": "[115]臺北市南港區東新里興南街62號",
    "電話": "(02)27837577",
    "網址": "https://www.thes.tp.edu.tw",
    "備註": "",
    "latitude": 34.9381934,
    "longitude": 135.756926
  },
  {
    "學校名稱": "市立修德國小",
    "公/私立": "公立",
    "縣市名稱": "[39]臺北市",
    "地址": "[115]臺北市南港區東新街118巷86號",
    "電話": "(02)27880500",
    "網址": "https://www.sdps.tp.edu.tw",
    "備註": "",
    "latitude": 25.046257,
    "longitude": 121.588197
  },
  {
    "學校名稱": "市立內湖國小",
    "公/私立": "公立",
    "縣市名稱": "[40]臺北市",
    "地址": "[114]臺北市內湖區港富里內湖路二段41號",
    "電話": "(02)27998085",
    "網址": "https://www.nhes.tp.edu.tw",
    "備註": "",
    "latitude": 25.0852582,
    "longitude": 121.577893
  },
  {
    "學校名稱": "市立碧湖國小",
    "公/私立": "公立",
    "縣市名稱": "[40]臺北市",
    "地址": "[114]臺北市內湖區內湖里金龍路100號",
    "電話": "(02)27907161",
    "網址": "https://www.bhps.tp.edu.tw",
    "備註": "",
    "latitude": 25.0851116,
    "longitude": 121.5925296
  },
  {
    "學校名稱": "市立潭美國小",
    "公/私立": "公立",
    "縣市名稱": "[40]臺北市",
    "地址": "[114]臺北市內湖區行善路179號",
    "電話": "(02)27917334",
    "網址": "https://www.tmes.tp.edu.tw",
    "備註": "",
    "latitude": 25.0659535,
    "longitude": 121.5858129
  },
  {
    "學校名稱": "市立東湖國小",
    "公/私立": "公立",
    "縣市名稱": "[40]臺北市",
    "地址": "[114]臺北市內湖區東湖里東湖路115號",
    "電話": "(02)26339984",
    "網址": "https://www.dfps.tp.edu.tw",
    "備註": "",
    "latitude": 25.0353741,
    "longitude": 121.5053042
  },
  {
    "學校名稱": "市立西湖國小",
    "公/私立": "公立",
    "縣市名稱": "[40]臺北市",
    "地址": "[114]臺北市內湖區西湖里環山路1段25號",
    "電話": "(02)27971267",
    "網址": "https://www.hhups.tp.edu.tw",
    "備註": "",
    "latitude": 25.085192,
    "longitude": 121.5662195
  },
  {
    "學校名稱": "市立康寧國小",
    "公/私立": "公立",
    "縣市名稱": "[40]臺北市",
    "地址": "[114]臺北市內湖區清白里星雲街121號",
    "電話": "(02)27901237",
    "網址": "https://www.klps.tp.edu.tw",
    "備註": "",
    "latitude": 25.0804626,
    "longitude": 121.5960403
  },
  {
    "學校名稱": "市立明湖國小",
    "公/私立": "公立",
    "縣市名稱": "[40]臺北市",
    "地址": "[114]臺北市內湖區東湖里康寧路3段105號",
    "電話": "(02)26323477",
    "網址": "https://www.mhups.tp.edu.tw",
    "備註": "",
    "latitude": 25.069664,
    "longitude": 121.5889983
  },
  {
    "學校名稱": "市立麗山國小",
    "公/私立": "公立",
    "縣市名稱": "[40]臺北市",
    "地址": "[114]臺北市內湖區港都里港華街100號",
    "電話": "(02)26574158",
    "網址": "https://w3.lnps.tp.edu.tw",
    "備註": "",
    "latitude": 25.0831027,
    "longitude": 121.5723426
  },
  {
    "學校名稱": "市立新湖國小",
    "公/私立": "公立",
    "縣市名稱": "[40]臺北市",
    "地址": "[114]臺北市內湖區湖興里民權東路6段138號",
    "電話": "(02)27963721",
    "網址": "https://www.shes.tp.edu.tw",
    "備註": "",
    "latitude": 25.0669245,
    "longitude": 121.5966934
  },
  {
    "學校名稱": "市立文湖國小",
    "公/私立": "公立",
    "縣市名稱": "[40]臺北市",
    "地址": "[114]臺北市內湖區西康里文湖街15號",
    "電話": "(02)26583515",
    "網址": "https://www.whups.tp.edu.tw",
    "備註": "",
    "latitude": 25.0864859,
    "longitude": 121.5598652
  },
  {
    "學校名稱": "市立大湖國小",
    "公/私立": "公立",
    "縣市名稱": "[40]臺北市",
    "地址": "[114]臺北市內湖區大湖里大湖山莊街170號",
    "電話": "(02)27915870",
    "網址": "https://www.dhps.tp.edu.tw",
    "備註": "",
    "latitude": 25.0882539,
    "longitude": 121.6008992
  },
  {
    "學校名稱": "市立南湖國小",
    "公/私立": "公立",
    "縣市名稱": "[40]臺北市",
    "地址": "[114]臺北市內湖區葫洲里康寧路3段200號",
    "電話": "(02)26321296",
    "網址": "https://www.nhps.tp.edu.tw",
    "備註": "",
    "latitude": 25.0708764,
    "longitude": 121.6105845
  },
  {
    "學校名稱": "市立麗湖國小",
    "公/私立": "公立",
    "縣市名稱": "[40]臺北市",
    "地址": "[114]臺北市內湖區金湖路363巷8號",
    "電話": "(02)26343888",
    "網址": "https://www.lhes.tp.edu.tw",
    "備註": "",
    "latitude": 25.0732128,
    "longitude": 121.6010415
  },
  {
    "學校名稱": "市立士林國小",
    "公/私立": "公立",
    "縣市名稱": "[41]臺北市",
    "地址": "[111]臺北市士林區福德里大東路165號",
    "電話": "(02)28812231",
    "網址": "https://www.slps.tp.edu.tw",
    "備註": "",
    "latitude": 25.0931723,
    "longitude": 121.5242852
  },
  {
    "學校名稱": "市立士東國小",
    "公/私立": "公立",
    "縣市名稱": "[41]臺北市",
    "地址": "[111]臺北市士林區蘭雅里中山北路6段392號",
    "電話": "(02)28710064",
    "網址": "https://www.stes.tp.edu.tw",
    "備註": "",
    "latitude": 25.112716,
    "longitude": 121.5274548
  },
  {
    "學校名稱": "市立福林國小",
    "公/私立": "公立",
    "縣市名稱": "[41]臺北市",
    "地址": "[111]臺北市士林區福志里福志路75號",
    "電話": "(02)28316293",
    "網址": "https://www.flps.tp.edu.tw",
    "備註": "",
    "latitude": 25.0970694,
    "longitude": 121.5347054
  },
  {
    "學校名稱": "市立陽明山國小",
    "公/私立": "公立",
    "縣市名稱": "[41]臺北市",
    "地址": "[111]臺北市士林區新安里仰德大道3段61號",
    "電話": "(02)28616366",
    "網址": "https://www.ymps.tp.edu.tw",
    "備註": "",
    "latitude": 25.1195715,
    "longitude": 121.5525467
  },
  {
    "學校名稱": "市立社子國小",
    "公/私立": "公立",
    "縣市名稱": "[41]臺北市",
    "地址": "[111]臺北市士林區永倫里延平北路六段308號",
    "電話": "(02)28126195",
    "網址": "https://www.stps.tp.edu.tw",
    "備註": "",
    "latitude": 25.0908675,
    "longitude": 121.5025709
  },
  {
    "學校名稱": "市立雨聲國小",
    "公/私立": "公立",
    "縣市名稱": "[41]臺北市",
    "地址": "[111]臺北市士林區岩山里至誠路1段62巷70號",
    "電話": "(02)28311004",
    "網址": "https://www.yses.tp.edu.tw",
    "備註": "",
    "latitude": 25.1013547,
    "longitude": 121.5343195
  },
  {
    "學校名稱": "市立富安國小",
    "公/私立": "公立",
    "縣市名稱": "[41]臺北市",
    "地址": "[111]臺北市士林區富洲里延平北路8段135號",
    "電話": "(02)28103192",
    "網址": "https://www.fuanps.tp.edu.tw",
    "備註": "",
    "latitude": 25.1059315,
    "longitude": 121.4831416
  },
  {
    "學校名稱": "市立劍潭國小",
    "公/私立": "公立",
    "縣市名稱": "[41]臺北市",
    "地址": "[111]臺北市士林區明勝里通河街16號",
    "電話": "(02)28855491",
    "網址": "https://www.jtes.tp.edu.tw",
    "備註": "",
    "latitude": 25.0794623,
    "longitude": 121.5226523
  },
  {
    "學校名稱": "市立溪山實驗國小",
    "公/私立": "公立",
    "縣市名稱": "[41]臺北市",
    "地址": "[111]臺北市士林區溪山里至善路3段199號",
    "電話": "(02)28411010",
    "網址": "https://www.hops.tp.edu.tw",
    "備註": "",
    "latitude": 25.1199521,
    "longitude": 121.5795691
  },
  {
    "學校名稱": "市立平等國小",
    "公/私立": "公立",
    "縣市名稱": "[41]臺北市",
    "地址": "[111]臺北市士林區平等里平菁街101號",
    "電話": "(02)28610503",
    "網址": "https://www.pdps.tp.edu.tw",
    "備註": "",
    "latitude": 34.9381934,
    "longitude": 135.756926
  },
  {
    "學校名稱": "市立百齡國小",
    "公/私立": "公立",
    "縣市名稱": "[41]臺北市",
    "地址": "[111]臺北市士林區福中里福港街205號",
    "電話": "(02)28817683",
    "網址": "https://www.bles.tp.edu.tw",
    "備註": "",
    "latitude": 25.0857581,
    "longitude": 121.5185371
  },
  {
    "學校名稱": "市立雙溪國小",
    "公/私立": "公立",
    "縣市名稱": "[41]臺北市",
    "地址": "[111]臺北市士林區翠山里中社路2段66號",
    "電話": "(02)28411038",
    "網址": "https://www.sses.tp.edu.tw",
    "備註": "",
    "latitude": 25.1065502,
    "longitude": 121.5646786
  },
  {
    "學校名稱": "市立葫蘆國小",
    "公/私立": "公立",
    "縣市名稱": "[41]臺北市",
    "地址": "[111]臺北市士林區環河北路3段95號",
    "電話": "(02)28129586",
    "網址": "https://www.hrps.tp.edu.tw",
    "備註": "",
    "latitude": 25.0797932,
    "longitude": 121.5080644
  },
  {
    "學校名稱": "市立雨農國小",
    "公/私立": "公立",
    "縣市名稱": "[41]臺北市",
    "地址": "[111]臺北市士林區名山里忠義街1號",
    "電話": "(02)28329700",
    "網址": "https://www.ynes.tp.edu.tw",
    "備註": "",
    "latitude": 25.1049193,
    "longitude": 121.5301218
  },
  {
    "學校名稱": "市立天母國小",
    "公/私立": "公立",
    "縣市名稱": "[41]臺北市",
    "地址": "[111]臺北市士林區天玉里天玉街12號",
    "電話": "(02)28723336",
    "網址": "https://www.tmups.tp.edu.tw",
    "備註": "",
    "latitude": 25.1203964,
    "longitude": 121.528078
  },
  {
    "學校名稱": "市立文昌國小",
    "公/私立": "公立",
    "縣市名稱": "[41]臺北市",
    "地址": "[111]臺北市士林區文林路615巷20號",
    "電話": "(02)28365411",
    "網址": "https://www.wces.tp.edu.tw",
    "備註": "",
    "latitude": 25.0992071,
    "longitude": 121.5217364
  },
  {
    "學校名稱": "市立芝山國小",
    "公/私立": "公立",
    "縣市名稱": "[41]臺北市",
    "地址": "[111]臺北市士林區芝山里德行東路285號",
    "電話": "(02)28316115",
    "網址": "https://www.zsps.tp.edu.tw",
    "備註": "",
    "latitude": 25.1107924,
    "longitude": 121.536739
  },
  {
    "學校名稱": "市立蘭雅國小",
    "公/私立": "公立",
    "縣市名稱": "[41]臺北市",
    "地址": "[111]臺北市士林區蘭興里磺溪街57號",
    "電話": "(02)28366052",
    "網址": "https://www.lyps.tp.edu.tw",
    "備註": "",
    "latitude": 25.1080012,
    "longitude": 121.5226638
  },
  {
    "學校名稱": "市立三玉國小",
    "公/私立": "公立",
    "縣市名稱": "[41]臺北市",
    "地址": "[111]臺北市士林區三玉里天母東路116號",
    "電話": "(02)28751369",
    "網址": "https://www.syups.tp.edu.tw",
    "備註": "",
    "latitude": 25.0918396,
    "longitude": 121.5242068
  },
  {
    "學校名稱": "私立薇閣小學",
    "公/私立": "私立",
    "縣市名稱": "[42]臺北市",
    "地址": "[112]臺北市北投區長安里育仁路106號",
    "電話": "(02)28912668",
    "網址": "https://web.wgps.tp.edu.tw",
    "備註": "",
    "latitude": 25.1356478,
    "longitude": 121.5009679
  },
  {
    "學校名稱": "市立北投國小",
    "公/私立": "公立",
    "縣市名稱": "[42]臺北市",
    "地址": "[112]臺北市北投區長安里中央北路1段73號",
    "電話": "(02)28912052",
    "網址": "https://www.ptes.tp.edu.tw",
    "備註": "",
    "latitude": 25.1356973,
    "longitude": 121.4980309
  },
  {
    "學校名稱": "市立逸仙國小",
    "公/私立": "公立",
    "縣市名稱": "[42]臺北市",
    "地址": "[112]臺北市北投區中心里新民路2號",
    "電話": "(02)28914537",
    "網址": "https://www.ysps.tp.edu.tw",
    "備註": "",
    "latitude": 25.1382636,
    "longitude": 121.5067894
  },
  {
    "學校名稱": "市立石牌國小",
    "公/私立": "公立",
    "縣市名稱": "[42]臺北市",
    "地址": "[112]臺北市北投區吉利里致遠二路80號",
    "電話": "(02)28227484",
    "網址": "https://web.spps.tp.edu.tw",
    "備註": "",
    "latitude": 25.115436,
    "longitude": 121.5116524
  },
  {
    "學校名稱": "市立關渡國小",
    "公/私立": "公立",
    "縣市名稱": "[42]臺北市",
    "地址": "[112]臺北市北投區一德里中央北路4段581號",
    "電話": "(02)28912847",
    "網址": "https://www.kdps.tp.edu.tw",
    "備註": "",
    "latitude": 25.132419,
    "longitude": 121.501379
  },
  {
    "學校名稱": "市立湖田實驗國小",
    "公/私立": "公立",
    "縣市名稱": "[42]臺北市",
    "地址": "[112]臺北市北投區湖田里竹子湖路17之2號",
    "電話": "(02)28616963",
    "網址": "https://www.htes.tp.edu.tw",
    "備註": "",
    "latitude": 25.1698879,
    "longitude": 121.5349739
  },
  {
    "學校名稱": "市立清江國小",
    "公/私立": "公立",
    "縣市名稱": "[42]臺北市",
    "地址": "[112]臺北市北投區奇岩里公館路220號",
    "電話": "(02)28912764",
    "網址": "https://www.cjps.tp.edu.tw",
    "備註": "",
    "latitude": 25.1264184,
    "longitude": 121.5067271
  },
  {
    "學校名稱": "市立泉源實驗國小",
    "公/私立": "公立",
    "縣市名稱": "[42]臺北市",
    "地址": "[112]臺北市北投區泉源里東昇路34號",
    "電話": "(02)28951258",
    "網址": "https://www.cyps.tp.edu.tw",
    "備註": "",
    "latitude": 25.1493682,
    "longitude": 121.5242014
  },
  {
    "學校名稱": "市立大屯國小",
    "公/私立": "公立",
    "縣市名稱": "[42]臺北市",
    "地址": "[112]臺北市北投區大屯里復興三路312號",
    "電話": "(02)28914353",
    "網址": "https://www.dtps.tp.edu.tw",
    "備註": "",
    "latitude": 25.1563771,
    "longitude": 121.5007219
  },
  {
    "學校名稱": "市立湖山國小",
    "公/私立": "公立",
    "縣市名稱": "[42]臺北市",
    "地址": "[112]臺北市北投區湖山里湖底路11號",
    "電話": "(02)28610148",
    "網址": "https://www.hses.tp.edu.tw",
    "備註": "",
    "latitude": 25.1450896,
    "longitude": 121.52639
  },
  {
    "學校名稱": "市立桃源國小",
    "公/私立": "公立",
    "縣市名稱": "[42]臺北市",
    "地址": "[112]臺北市北投區中央北路3段40巷45號",
    "電話": "(02)28941208",
    "網址": "https://www.tyues.tp.edu.tw",
    "備註": "",
    "latitude": 25.1404172,
    "longitude": 121.4841884
  },
  {
    "學校名稱": "市立文林國小",
    "公/私立": "公立",
    "縣市名稱": "[42]臺北市",
    "地址": "[112]臺北市北投區建民里文林北路155號",
    "電話": "(02)28234212",
    "網址": "https://www.wles.tp.edu.tw",
    "備註": "",
    "latitude": 25.1037026,
    "longitude": 121.5157461
  },
  {
    "學校名稱": "市立義方國小",
    "公/私立": "公立",
    "縣市名稱": "[42]臺北市",
    "地址": "[112]臺北市北投區珠海路155號",
    "電話": "(02)28917433",
    "網址": "https://www.yfes.tp.edu.tw",
    "備註": "",
    "latitude": 25.1419004,
    "longitude": 121.5107918
  },
  {
    "學校名稱": "市立立農國小",
    "公/私立": "公立",
    "縣市名稱": "[42]臺北市",
    "地址": "[112]臺北市北投區立農里立農街1段250號",
    "電話": "(02)28210702",
    "網址": "https://www.lnes.tp.edu.tw",
    "備註": "",
    "latitude": 25.1194708,
    "longitude": 121.5106393
  },
  {
    "學校名稱": "市立明德國小",
    "公/私立": "公立",
    "縣市名稱": "[42]臺北市",
    "地址": "[112]臺北市北投區榮華里明德路190號",
    "電話": "(02)28229651",
    "網址": "https://www.mdes.tp.edu.tw",
    "備註": "",
    "latitude": 25.1118899,
    "longitude": 121.5223632
  },
  {
    "學校名稱": "市立文化國小",
    "公/私立": "公立",
    "縣市名稱": "[42]臺北市",
    "地址": "[112]臺北市北投區文化里文化三路1號",
    "電話": "(02)28933828",
    "網址": "https://www.whps.tp.edu.tw",
    "備註": "",
    "latitude": 25.1371403,
    "longitude": 121.4961967
  },
  {
    "學校名稱": "私立福祿貝爾國小",
    "公/私立": "私立",
    "縣市名稱": "[03]桃園市",
    "地址": "[325]桃園市龍潭區金龍路223號",
    "電話": "(03)4899899",
    "網址": "https://www.fies.tyc.edu.tw",
    "備註": "",
    "latitude": 24.8506878,
    "longitude": 121.2154952
  },
  {
    "學校名稱": "私立諾瓦國小",
    "公/私立": "私立",
    "縣市名稱": "[03]桃園市",
    "地址": "[325]桃園市龍潭區渴望園區渴望路660巷50弄1號",
    "電話": "(03)4072882",
    "網址": "http://www.renoir.com.tw",
    "備註": "",
    "latitude": 24.8452744,
    "longitude": 121.1773045
  },
  {
    "學校名稱": "私立有得國(中)小",
    "公/私立": "私立",
    "縣市名稱": "[03]桃園市",
    "地址": "[320]桃園市中壢區內壢長春一路288號",
    "電話": "(03)4522789",
    "網址": "https://www.yoderedu.org",
    "備註": "",
    "latitude": 24.9653531,
    "longitude": 121.224926
  },
  {
    "學校名稱": "私立康萊爾國(中)小",
    "公/私立": "私立",
    "縣市名稱": "[03]桃園市",
    "地址": "[330]桃園市桃園區力行路288巷8號",
    "電話": "(03)3026889",
    "網址": "https://www.cornell.tyc.edu.tw",
    "備註": "",
    "latitude": 24.999466,
    "longitude": 121.297658
  },
  {
    "學校名稱": "市立文青國(中)小",
    "公/私立": "公立",
    "縣市名稱": "[03]桃園市",
    "地址": "[333]桃園市龜山區樂善二路778號",
    "電話": "(03)3594000",
    "網址": "https://www.wcjps.tyc.edu.tw",
    "備註": "",
    "latitude": 25.0473979,
    "longitude": 121.3819024
  },
  {
    "學校名稱": "市立青園國小",
    "公/私立": "公立",
    "縣市名稱": "[03]桃園市",
    "地址": "[320]桃園市中壢區青昇路123號",
    "電話": "(03)2871741",
    "網址": "https://www.qyes.tyc.edu.tw",
    "備註": "",
    "latitude": 25.0150534,
    "longitude": 121.2206335
  },
  {
    "學校名稱": "市立桃園國小",
    "公/私立": "公立",
    "縣市名稱": "[03]桃園市",
    "地址": "[330]桃園市桃園區民權路67號",
    "電話": "(03)3322268",
    "網址": "http://163.30.44.1/",
    "備註": "",
    "latitude": 24.9960063,
    "longitude": 121.3085634
  },
  {
    "學校名稱": "市立東門國小",
    "公/私立": "公立",
    "縣市名稱": "[03]桃園市",
    "地址": "[330]桃園市桃園區東門里東國街14號",
    "電話": "(03)3322057",
    "網址": "https://www.tmps.tyc.edu.tw",
    "備註": "",
    "latitude": 34.9327856,
    "longitude": 135.7649023
  },
  {
    "學校名稱": "市立中埔國小",
    "公/私立": "公立",
    "縣市名稱": "[03]桃園市",
    "地址": "[330]桃園市桃園區永安路1054號",
    "電話": "(03)3013028",
    "網址": "https://www.jbes.tyc.edu.tw",
    "備註": "",
    "latitude": 25.0041367,
    "longitude": 121.2964442
  },
  {
    "學校名稱": "市立成功國小",
    "公/私立": "公立",
    "縣市名稱": "[03]桃園市",
    "地址": "[330]桃園市桃園區三民路三段22號",
    "電話": "(03)3322772",
    "網址": "https://www.cges.tyc.edu.tw",
    "備註": "",
    "latitude": 24.993923,
    "longitude": 121.30168
  },
  {
    "學校名稱": "市立會稽國小",
    "公/私立": "公立",
    "縣市名稱": "[03]桃園市",
    "地址": "[330]桃園市桃園區春日路1080號",
    "電話": "(03)3252982",
    "網址": "https://www.gjes.tyc.edu.tw",
    "備註": "",
    "latitude": 25.018587,
    "longitude": 121.3086643
  },
  {
    "學校名稱": "市立建國國小",
    "公/私立": "公立",
    "縣市名稱": "[03]桃園市",
    "地址": "[330]桃園市桃園區昆明路95號",
    "電話": "(03)3636660",
    "網址": "https://www.jkes.tyc.edu.tw",
    "備註": "",
    "latitude": 24.9837489,
    "longitude": 121.31662
  },
  {
    "學校名稱": "市立中山國小",
    "公/私立": "公立",
    "縣市名稱": "[03]桃園市",
    "地址": "[330]桃園市桃園區國際路一段1070號",
    "電話": "(03)2203012",
    "網址": "https://www.chses.tyc.edu.tw",
    "備註": "",
    "latitude": 24.9870027,
    "longitude": 121.2894152
  },
  {
    "學校名稱": "市立文山國小",
    "公/私立": "公立",
    "縣市名稱": "[03]桃園市",
    "地址": "[330]桃園市桃園區文中路120號",
    "電話": "(03)3602013",
    "網址": "https://www.wsps.tyc.edu.tw",
    "備註": "",
    "latitude": 24.9928461,
    "longitude": 121.274311
  },
  {
    "學校名稱": "市立南門國小",
    "公/私立": "公立",
    "縣市名稱": "[03]桃園市",
    "地址": "[330]桃園市桃園區復興路303號",
    "電話": "(03)3370576",
    "網址": "https://www.nmes.tyc.edu.tw",
    "備註": "",
    "latitude": 24.9890696,
    "longitude": 121.3079699
  },
  {
    "學校名稱": "市立西門國小",
    "公/私立": "公立",
    "縣市名稱": "[03]桃園市",
    "地址": "[330]桃園市桃園區莒光街15號",
    "電話": "(03)3342351",
    "網址": "https://www.simes.tyc.edu.tw",
    "備註": "",
    "latitude": 24.9953292,
    "longitude": 121.3032375
  },
  {
    "學校名稱": "市立龍山國小",
    "公/私立": "公立",
    "縣市名稱": "[03]桃園市",
    "地址": "[330]桃園市桃園區龍泉二街36號",
    "電話": "(03)3691253",
    "網址": "https://www.loses.tyc.edu.tw",
    "備註": "",
    "latitude": 24.9805202,
    "longitude": 121.2700642
  },
  {
    "學校名稱": "市立北門國小",
    "公/私立": "公立",
    "縣市名稱": "[03]桃園市",
    "地址": "[330]桃園市桃園區正康三街139號",
    "電話": "(03)3250959",
    "網址": "https://www.pmes.tyc.edu.tw",
    "備註": "",
    "latitude": 25.0090954,
    "longitude": 121.3065082
  },
  {
    "學校名稱": "市立南崁國小",
    "公/私立": "公立",
    "縣市名稱": "[03]桃園市",
    "地址": "[338]桃園市蘆竹區羊稠里吉林路160號",
    "電話": "(03)3115578",
    "網址": "https://www.nkes.tyc.edu.tw",
    "備註": "",
    "latitude": 25.0506448,
    "longitude": 121.2917322
  },
  {
    "學校名稱": "市立公埔國小",
    "公/私立": "公立",
    "縣市名稱": "[03]桃園市",
    "地址": "[338]桃園市蘆竹區南山路二段448號",
    "電話": "(03)3243852",
    "網址": "https://www.gpes.tyc.edu.tw",
    "備註": "",
    "latitude": 25.0679349,
    "longitude": 121.2859375
  },
  {
    "學校名稱": "市立蘆竹國小",
    "公/私立": "公立",
    "縣市名稱": "[03]桃園市",
    "地址": "[338]桃園市蘆竹區富國路二段850號",
    "電話": "(03)3221731",
    "網址": "https://www.lces.tyc.edu.tw",
    "備註": "",
    "latitude": 25.0416884,
    "longitude": 121.2678752
  },
  {
    "學校名稱": "市立大竹國小",
    "公/私立": "公立",
    "縣市名稱": "[03]桃園市",
    "地址": "[338]桃園市蘆竹區大竹路556號",
    "電話": "(03)3232917",
    "網址": "http://www.dces.tyc.edu.tw",
    "備註": "",
    "latitude": 25.0212852,
    "longitude": 121.2635266
  },
  {
    "學校名稱": "市立新興國小",
    "公/私立": "公立",
    "縣市名稱": "[03]桃園市",
    "地址": "[338]桃園市蘆竹區新興里新興街355號",
    "電話": "(03)3602448",
    "網址": "https://www.ssps.tyc.edu.tw",
    "備註": "",
    "latitude": 24.9625046,
    "longitude": 121.2198243
  },
  {
    "學校名稱": "市立外社國小",
    "公/私立": "公立",
    "縣市名稱": "[03]桃園市",
    "地址": "[338]桃園市蘆竹區山林路二段525號",
    "電話": "(03)3241874",
    "網址": "https://www.wses.tyc.edu.tw",
    "備註": "",
    "latitude": 25.0833429,
    "longitude": 121.2989331
  },
  {
    "學校名稱": "市立頂社國小",
    "公/私立": "公立",
    "縣市名稱": "[03]桃園市",
    "地址": "[338]桃園市蘆竹區山林路三段232號",
    "電話": "(03)3241182",
    "網址": "http://www.dises.tyc.edu.tw",
    "備註": "",
    "latitude": 25.0782386,
    "longitude": 121.3397897
  },
  {
    "學校名稱": "市立海湖國小",
    "公/私立": "公立",
    "縣市名稱": "[03]桃園市",
    "地址": "[338]桃園市蘆竹區海湖東路191巷15號",
    "電話": "(03)3542181",
    "網址": "https://www.hwes.tyc.edu.tw",
    "備註": "",
    "latitude": 25.1020737,
    "longitude": 121.2669196
  },
  {
    "學校名稱": "市立山腳國小",
    "公/私立": "公立",
    "縣市名稱": "[03]桃園市",
    "地址": "[338]桃園市蘆竹區南山路三段440號",
    "電話": "(03)3241884",
    "網址": "https://www.sajes.tyc.edu.tw",
    "備註": "",
    "latitude": 25.0816772,
    "longitude": 121.2859394
  },
  {
    "學校名稱": "市立大華國小",
    "公/私立": "公立",
    "縣市名稱": "[03]桃園市",
    "地址": "[338]桃園市蘆竹區宏竹里大華街98號",
    "電話": "(03)3232664",
    "網址": "https://www.thps.tyc.edu.tw",
    "備註": "",
    "latitude": 28.6484293,
    "longitude": 115.8795243
  },
  {
    "學校名稱": "市立新莊國小",
    "公/私立": "公立",
    "縣市名稱": "[03]桃園市",
    "地址": "[338]桃園市蘆竹區大新路380巷121號",
    "電話": "(03)3231264",
    "網址": "https://www.sjps.tyc.edu.tw",
    "備註": "",
    "latitude": 25.0275373,
    "longitude": 121.2477773
  },
  {
    "學校名稱": "市立大園國小",
    "公/私立": "公立",
    "縣市名稱": "[03]桃園市",
    "地址": "[337]桃園市大園區橫峰里中正東路160號",
    "電話": "(03)3862030",
    "網址": "https://www.dyps.tyc.edu.tw",
    "備註": "",
    "latitude": 25.0611321,
    "longitude": 121.2051091
  },
  {
    "學校名稱": "市立內海國小",
    "公/私立": "公立",
    "縣市名稱": "[03]桃園市",
    "地址": "[337]桃園市大園區內海里2鄰學府路76巷32號",
    "電話": "(03)3862844",
    "網址": "https://www.nhes.tyc.edu.tw",
    "備註": "",
    "latitude": 25.063889,
    "longitude": 121.195277
  },
  {
    "學校名稱": "市立溪海國小",
    "公/私立": "公立",
    "縣市名稱": "[03]桃園市",
    "地址": "[337]桃園市大園區溪海里十一鄰和平西路一段420號",
    "電話": "(03)3862174",
    "網址": "https://www.hhes.tyc.edu.tw",
    "備註": "",
    "latitude": 25.063889,
    "longitude": 121.195277
  },
  {
    "學校名稱": "市立潮音國小",
    "公/私立": "公立",
    "縣市名稱": "[03]桃園市",
    "地址": "[337]桃園市大園區潮音路一段188號",
    "電話": "(03)3862834",
    "網址": "https://www.cies.tyc.edu.tw",
    "備註": "",
    "latitude": 25.0671401,
    "longitude": 121.1726884
  },
  {
    "學校名稱": "市立竹圍國小",
    "公/私立": "公立",
    "縣市名稱": "[03]桃園市",
    "地址": "[337]桃園市大園區竹圍里二鄰竹圍街3號",
    "電話": "(03)3835079",
    "網址": "https://www.jwes.tyc.edu.tw",
    "備註": "",
    "latitude": 25.063889,
    "longitude": 121.195277
  },
  {
    "學校名稱": "市立菓林國小",
    "公/私立": "公立",
    "縣市名稱": "[03]桃園市",
    "地址": "[337]桃園市大園區菓林里十二鄰崁下41號",
    "電話": "(03)3835096",
    "網址": "https://www.kles.tyc.edu.tw",
    "備註": "",
    "latitude": 25.063889,
    "longitude": 121.195277
  },
  {
    "學校名稱": "市立埔心國小",
    "公/私立": "公立",
    "縣市名稱": "[03]桃園市",
    "地址": "[337]桃園市大園區中正東路一段189巷35號",
    "電話": "(03)3812304",
    "網址": "https://www.puses.tyc.edu.tw",
    "備註": "",
    "latitude": 25.0479537,
    "longitude": 121.2231178
  },
  {
    "學校名稱": "市立五權國小",
    "公/私立": "公立",
    "縣市名稱": "[03]桃園市",
    "地址": "[337]桃園市大園區中正東路二段539號",
    "電話": "(03)3812803",
    "網址": "https://www.wqes.tyc.edu.tw",
    "備註": "",
    "latitude": 25.0340049,
    "longitude": 121.230644
  },
  {
    "學校名稱": "市立龜山國小",
    "公/私立": "公立",
    "縣市名稱": "[03]桃園市",
    "地址": "[333]桃園市龜山區萬壽路二段933巷14號",
    "電話": "(03)3203571",
    "網址": "https://www.kses.tyc.edu.tw",
    "備註": "",
    "latitude": 24.9948462,
    "longitude": 121.3386175
  },
  {
    "學校名稱": "市立壽山國小",
    "公/私立": "公立",
    "縣市名稱": "[03]桃園市",
    "地址": "[333]桃園市龜山區萬壽路二段6巷61號",
    "電話": "(03)3291782",
    "網址": "https://www.sses.tyc.edu.tw",
    "備註": "",
    "latitude": 25.0023885,
    "longitude": 121.365198
  },
  {
    "學校名稱": "市立福源國小",
    "公/私立": "公立",
    "縣市名稱": "[03]桃園市",
    "地址": "[333]桃園市龜山區兔坑里大同路916號",
    "電話": "(03)3297276",
    "網址": "https://www.fyes.tyc.edu.tw",
    "備註": "",
    "latitude": 24.9886722,
    "longitude": 121.3776224
  },
  {
    "學校名稱": "市立大崗國小",
    "公/私立": "公立",
    "縣市名稱": "[03]桃園市",
    "地址": "[333]桃園市龜山區大崗里20鄰大湖一路175號",
    "電話": "(03)3282457",
    "網址": "https://www.dges.tyc.edu.tw",
    "備註": "",
    "latitude": 24.992517,
    "longitude": 121.337767
  },
  {
    "學校名稱": "市立大埔國小",
    "公/私立": "公立",
    "縣市名稱": "[03]桃園市",
    "地址": "[333]桃園市龜山區振興路1169號",
    "電話": "(03)3298329",
    "網址": "https://www.dpps.tyc.edu.tw",
    "備註": "",
    "latitude": 25.0321654,
    "longitude": 121.3781809
  },
  {
    "學校名稱": "市立大坑國小",
    "公/私立": "公立",
    "縣市名稱": "[03]桃園市",
    "地址": "[333]桃園市龜山區大坑路一段850號",
    "電話": "(03)3252430",
    "網址": "https://www.dkes.tyc.edu.tw",
    "備註": "",
    "latitude": 25.0394734,
    "longitude": 121.3013297
  },
  {
    "學校名稱": "市立山頂國小",
    "公/私立": "公立",
    "縣市名稱": "[03]桃園市",
    "地址": "[333]桃園市龜山區山德里頂興路2號",
    "電話": "(03)3207244",
    "網址": "https://www.sdps.tyc.edu.tw",
    "備註": "",
    "latitude": 24.9905033,
    "longitude": 121.3283135
  },
  {
    "學校名稱": "市立龍壽國小",
    "公/私立": "公立",
    "縣市名稱": "[03]桃園市",
    "地址": "[333]桃園市龜山區龍壽里龍校街30號",
    "電話": "(03)3296554",
    "網址": "https://www.lnses.tyc.edu.tw",
    "備註": "",
    "latitude": 25.0106703,
    "longitude": 121.3875031
  },