[
  {
    "代碼": "311J01",
    "機構名稱": "臺北市長華國際蒙特梭利實驗教育機構",
    "公/私立": "私立",
    "縣市名稱": "臺北市",
    "地址": "臺北市松山區民生東路四段97巷5號",
    "電話": "02-27182855",
    "latitude": 25.0589296,
    "longitude": 121.5519832
  },
  {
    "代碼": "311J02",
    "機構名稱": "臺北市昶心蒙特梭利實驗教育機構",
    "公/私立": "私立",
    "縣市名稱": "臺北市",
    "地址": "臺北市松山區民生東路四段80巷1弄16號",
    "電話": "02-27186283",
    "latitude": 25.0576643,
    "longitude": 121.5536925
  },
  {
    "代碼": "311J03",
    "機構名稱": "臺北市瓦嘉諾娃實驗教育機構",
    "公/私立": "私立",
    "縣市名稱": "臺北市",
    "地址": "臺北市松山區八德路三段211之2號3樓",
    "電話": "0986-509796",
    "latitude": 25.0498852,
    "longitude": 121.5772719
  },
  {
    "代碼": "321J01",
    "機構名稱": "臺北市新主流實驗教育機構",
    "公/私立": "私立",
    "縣市名稱": "臺北市",
    "地址": "臺北市信義區松仁路226號(吳興國小)",
    "電話": "0928-841687、\n0922-510712",
    "latitude": 25.0343594,
    "longitude": 121.5684008
  },
  {
    "代碼": "321J02",
    "機構名稱": "臺北市華砇國際數位實驗教育機構",
    "公/私立": "私立",
    "縣市名稱": "臺北市",
    "地址": "臺北市忠孝東路五段790巷27號",
    "電話": "02-87865872",
    "latitude": 25.0399683,
    "longitude": 121.5839919
  },
  {
    "代碼": "321J03",
    "機構名稱": "臺北市台北法國實驗教育機構",
    "公/私立": "私立",
    "縣市名稱": "臺北市",
    "地址": "臺北市信義區福德街211巷15號",
    "電話": "0909-627271",
    "latitude": 25.0371119,
    "longitude": 121.5814807
  },
  {
    "代碼": "331J01",
    "機構名稱": "臺北市濯亞國際學院實驗教育機構",
    "公/私立": "私立",
    "縣市名稱": "臺北市",
    "地址": "臺北市大安區建國南路二段201號12樓",
    "電話": "02-27017891",
    "latitude": 25.0305616,
    "longitude": 121.5380041
  },
  {
    "代碼": "331J02",
    "機構名稱": "臺北市無界塾實驗教育機構",
    "公/私立": "私立",
    "縣市名稱": "臺北市",
    "地址": "臺北市中正區徐州路15號",
    "電話": "02-27373293(蘭州國中)、02-2308-5575(華江國小)",
    "latitude": 25.0419361,
    "longitude": 121.5184343
  },
  {
    "代碼": "331J04",
    "機構名稱": "臺北市光禾實驗教育協會臺北市小實光實驗教育機構",
    "公/私立": "私立",
    "縣市名稱": "臺北市",
    "地址": "臺北市大安區信義路三段162-16號號4樓",
    "電話": "02-27097123",
    "latitude": 25.0333951,
    "longitude": 121.5387474
  },
  {
    "代碼": "331J05",
    "機構名稱": "陪伴者兒少生涯教育協會臺北市陪伴者實驗教育機構",
    "公/私立": "私立",
    "縣市名稱": "臺北市",
    "地址": "臺北市大安區信義路四段265巷21弄26號",
    "電話": "02-27082776",
    "latitude": 25.0339526,
    "longitude": 121.5554693
  },
  {
    "代碼": "331J06",
    "機構名稱": "臺北市樂之學苑實驗教育機構",
    "公/私立": "私立",
    "縣市名稱": "臺北市",
    "地址": "臺北市大同區長安西路37-1號(建成國中)",
    "電話": "0917-780106",
    "latitude": 25.0502374,
    "longitude": 121.5198774
  },
  {
    "代碼": "331J07",
    "機構名稱": "臺北市宸恩實驗教育機構",
    "公/私立": "私立",
    "縣市名稱": "臺北市",
    "地址": "臺北市大安區泰順街2號3樓之1",
    "電話": "02-23652313",
    "latitude": 25.0223696,
    "longitude": 121.5311751
  },
  {
    "代碼": "331J08",
    "機構名稱": "臺北市滿兒圓蒙特梭利實驗教育機構",
    "公/私立": "私立",
    "縣市名稱": "臺北市",
    "地址": "臺北市大安區仁愛路四段300巷20弄19號",
    "電話": "02-27010857",
    "latitude": 25.0362327,
    "longitude": 121.5536791
  },
  {
    "代碼": "331J09",
    "機構名稱": "臺北市5IN實驗教育機構",
    "公/私立": "私立",
    "縣市名稱": "臺北市",
    "地址": "臺北市大安區大安路二段63號",
    "電話": "02-27557131",
    "latitude": 25.0310214,
    "longitude": 121.546062
  },
  {
    "代碼": "341J01",
    "機構名稱": "臺北市青禾華德福實驗教育機構",
    "公/私立": "私立",
    "縣市名稱": "臺北市",
    "地址": "臺北市中山區樂群二路262號（濱江實中）",
    "電話": "02-85015822",
    "latitude": 25.0799369,
    "longitude": 121.5532825
  },
  {
    "代碼": "341J03",
    "機構名稱": "臺北市羽白群學實驗教育機構",
    "公/私立": "私立",
    "縣市名稱": "臺北市",
    "地址": "臺北市中山區明水路325號(北安國中)",
    "電話": "0939-737917",
    "latitude": 25.0776244,
    "longitude": 121.5417855
  },
  {
    "代碼": "341J04",
    "機構名稱": "臺北市身生實驗教育機構",
    "公/私立": "私立",
    "縣市名稱": "臺北市",
    "地址": "臺北市中山區中山北路三段40號(B6平房)",
    "電話": "02-25980187",
    "latitude": 25.0696205,
    "longitude": 121.5232034
  },
  {
    "代碼": "351J01",
    "機構名稱": "臺北市影視音實驗教育機構",
    "公/私立": "私立",
    "縣市名稱": "臺北市",
    "地址": "臺北市中正區汀州路三段230巷18弄7-1號(寶藏巖)",
    "電話": "02-77055355",
    "latitude": 25.0190025,
    "longitude": 121.52664
  },
  {
    "代碼": "351J02",
    "機構名稱": "臺北市史代納實驗教育機構",
    "公/私立": "私立",
    "縣市名稱": "臺北市",
    "地址": "臺北市中正區詔安街29號（螢橋國小）",
    "電話": "02-23010652",
    "latitude": 25.0252613,
    "longitude": 121.5129352
  },
  {
    "代碼": "351J03",
    "機構名稱": "臺北市VIS世界改造實驗教育機構",
    "公/私立": "私立",
    "縣市名稱": "臺北市",
    "地址": "臺北市中正區羅斯福路一段97號3樓",
    "電話": "02-23567978",
    "latitude": 25.0331295,
    "longitude": 121.5180565
  },
  {
    "代碼": "351J04",
    "機構名稱": "臺北市新視野實驗教育機構",
    "公/私立": "私立",
    "縣市名稱": "臺北市",
    "地址": "臺北市中正區牯嶺街12號2樓至4樓",
    "電話": "02-23568160轉506",
    "latitude": 25.02743,
    "longitude": 121.5183563
  },
  {
    "代碼": "371J01",
    "機構名稱": "臺北市華藏實驗教育機構",
    "公/私立": "私立",
    "縣市名稱": "臺北市",
    "地址": "臺北市萬華區艋舺大道389號",
    "電話": "02-23020129轉15",
    "latitude": 25.0285163,
    "longitude": 121.4911631
  },
  {
    "代碼": "371J02",
    "機構名稱": "臺北市珍古德實驗教育機構",
    "公/私立": "私立",
    "縣市名稱": "臺北市",
    "地址": "臺北市萬華區和平西路三段235號(龍山國小)",
    "電話": "02-23966236",
    "latitude": 25.0344353,
    "longitude": 121.5040473
  },
  {
    "代碼": "371J03",
    "機構名稱": "臺北市愛因思卡實驗教育機構",
    "公/私立": "私立",
    "縣市名稱": "臺北市",
    "地址": "臺北市萬華區內江街89號（國立臺北護理健康大學 城區部紅樓A棟1樓）",
    "電話": "02-25020690",
    "latitude": 25.0416324,
    "longitude": 121.5057453
  },
  {
    "代碼": "381J01",
    "機構名稱": "臺北市同心華德福實驗教育機構",
    "公/私立": "私立",
    "縣市名稱": "臺北市",
    "地址": "臺北市文山區試院路2號(永建國小舊址)",
    "電話": "02-22366791",
    "latitude": 24.9899852,
    "longitude": 121.5475996
  },
  {
    "代碼": "381J02",
    "機構名稱": "臺北市昱光華德福實驗教育機構",
    "公/私立": "私立",
    "縣市名稱": "臺北市",
    "地址": "臺北市文山區試院路2號",
    "電話": "02-22360788",
    "latitude": 25.0407851,
    "longitude": 121.5208679
  },
  {
    "代碼": "401J01",
    "機構名稱": "臺北市學學實驗教育機構",
    "公/私立": "私立",
    "縣市名稱": "臺北市",
    "地址": "臺北市內湖區堤頂大道二段207號3、5樓",
    "電話": "02-87516898#220",
    "latitude": 25.0781186,
    "longitude": 121.5665492
  },
  {
    "代碼": "401J02",
    "機構名稱": "臺北市哈柏露塔實驗教育機構",
    "公/私立": "私立",
    "縣市名稱": "臺北市",
    "地址": "臺北市內湖區大湖山莊街170號(大湖國小)",
    "電話": "02-27943993",
    "latitude": 25.085657,
    "longitude": 121.6017278
  },
  {
    "代碼": "401J03",
    "機構名稱": "臺北市旭日實驗教育機構",
    "公/私立": "私立",
    "縣市名稱": "臺北市",
    "地址": "臺北市內湖區文德路88之1號",
    "電話": "02-26270596",
    "latitude": 25.0784403,
    "longitude": 121.5803707
  },
  {
    "代碼": "421J01",
    "機構名稱": "財團法人基督教聖道兒少福利基金會臺北市葉學堂實驗教育機構",
    "公/私立": "私立",
    "縣市名稱": "臺北市",
    "地址": "臺北市中正區三元街131號",
    "電話": "02-66050799轉2001",
    "latitude": 25.0323611,
    "longitude": 121.518267
  },
  {
    "代碼": "421J02",
    "機構名稱": "臺北市關渡華砇實驗教育機構",
    "公/私立": "私立",
    "縣市名稱": "臺北市",
    "地址": "臺北市北投區一德街75號1樓至3樓",
    "電話": "02-28948098轉103",
    "latitude": 25.132419,
    "longitude": 121.501379
  },
  {
    "代碼": "011J01",
    "機構名稱": "新北市籌設森林小學期前教學研究實驗教育機構",
    "公/私立": "私立",
    "縣市名稱": "新北市",
    "地址": "新北市汐止區汐碇路373號",
    "電話": "02-26606133",
    "latitude": 25.0588204,
    "longitude": 121.654023
  },
  {
    "代碼": "011J04",
    "機構名稱": "新北市汗得建築工事實驗教育機構",
    "公/私立": "私立",
    "縣市名稱": "新北市",
    "地址": "臺北市萬華區青年路65號2樓",
    "電話": "02-23379862",
    "latitude": 25.0209497,
    "longitude": 121.5028359
  },
  {
    "代碼": "011J05",
    "機構名稱": "新北市原聲國際學院實驗教育機構",
    "公/私立": "私立",
    "縣市名稱": "新北市",
    "地址": "新北市淡水區自強路51號",
    "電話": "02-28086618",
    "latitude": 25.1303465,
    "longitude": 121.4618357
  },
  {
    "代碼": "011J08",
    "機構名稱": "新北市心語實驗教育機構",
    "公/私立": "私立",
    "縣市名稱": "新北市",
    "地址": "新北市林口區仁愛路二段608號",
    "電話": "02-26092727分機11",
    "latitude": 25.0749808,
    "longitude": 121.3836583
  },
  {
    "代碼": "011J09",
    "機構名稱": "新北市路亞實驗教育機構",
    "公/私立": "私立",
    "縣市名稱": "新北市",
    "地址": "新北市林口區文化北路一段498號3樓、4樓",
    "電話": "02-26001357",
    "latitude": 25.072363,
    "longitude": 121.3598213
  },
  {
    "代碼": "011J10",
    "機構名稱": "新北市翰科實驗教育機構",
    "公/私立": "私立",
    "縣市名稱": "新北市",
    "地址": "新北市林口區文化三路二段457號",
    "電話": "02-77553699",
    "latitude": 25.0841383,
    "longitude": 121.377389
  },
  {
    "代碼": "011J11",
    "機構名稱": "新北市臺灣瑟谷實驗教育機構",
    "公/私立": "私立",
    "縣市名稱": "新北市",
    "地址": "新北市新店區蘭苑一路3號",
    "電話": "02-26669037",
    "latitude": 24.9673935,
    "longitude": 121.5419418
  },
  {
    "代碼": "011J12",
    "機構名稱": "新北市新惠佑蒙特梭利實驗教育機構",
    "公/私立": "私立",
    "縣市名稱": "新北市",
    "地址": "新北市永和區文化路133號",
    "電話": "02-89285545",
    "latitude": 25.0168692,
    "longitude": 121.5098381
  },
  {
    "代碼": "011J13",
    "機構名稱": "新北市仰望實驗教育機構",
    "公/私立": "私立",
    "縣市名稱": "新北市",
    "地址": "新北市三重區中正北路560巷38號",
    "電話": "02-29886157",
    "latitude": 25.0701796,
    "longitude": 121.4708897
  },
  {
    "代碼": "011J15",
    "機構名稱": "新北市Future實驗教育機構",
    "公/私立": "私立",
    "縣市名稱": "新北市",
    "地址": "新北市中和區莒光路191號",
    "電話": "02-22213066",
    "latitude": 25.0056439,
    "longitude": 121.4719443
  },
  {
    "代碼": "011J16",
    "機構名稱": "新北市TCS探索未來國際實驗教育機構",
    "公/私立": "私立",
    "縣市名稱": "新北市",
    "地址": "新北市林口區仁愛路一段2號(國立臺灣師範大學林口校區-資訊與教學大樓A區)",
    "電話": "02-26012226",
    "latitude": 25.076443,
    "longitude": 121.3911467
  },
  {
    "代碼": "011J17",
    "機構名稱": "新北市創生藝文實驗教育機構",
    "公/私立": "私立",
    "縣市名稱": "新北市",
    "地址": "新北市三芝區中興街二段137號",
    "電話": "02-26383974",
    "latitude": 25.2564932,
    "longitude": 121.4985403
  },
  {
    "代碼": "011J18",
    "機構名稱": "新北市愛德實驗教育機構",
    "公/私立": "私立",
    "縣市名稱": "新北市",
    "地址": "新北市林口區忠孝路614號3樓",
    "電話": "02-26005627",
    "latitude": 25.0681707,
    "longitude": 121.3747313
  },
  {
    "代碼": "011J19",
    "機構名稱": "新北市路德實驗教育機構",
    "公/私立": "私立",
    "縣市名稱": "新北市",
    "地址": "新北市林口區文化北路一段498號5樓",
    "電話": "02-26001357",
    "latitude": 25.072363,
    "longitude": 121.3598213
  },
  {
    "代碼": "011J20",
    "機構名稱": "新北市中信國際實驗教育機構",
    "公/私立": "私立",
    "縣市名稱": "新北市",
    "地址": "新北市新店區安興路1號",
    "電話": "02-22122127",
    "latitude": 24.9772661,
    "longitude": 121.5146158
  },
  {
    "代碼": "011J21",
    "機構名稱": "新北市夏哲森實驗教育機構",
    "公/私立": "私立",
    "縣市名稱": "新北市",
    "地址": "新北市林口區仁愛路二段309號3樓",
    "電話": "02-26068736",
    "latitude": 25.0749808,
    "longitude": 121.3836583
  },
  {
    "代碼": "031J01",
    "機構名稱": "桃園市諾瓦實驗教育機構",
    "公/私立": "私立",
    "縣市名稱": "桃園市",
    "地址": "桃園市龍潭區渴望路660巷50弄1號",
    "電話": "03-4072882",
    "latitude": 24.8446139,
    "longitude": 121.1778863
  },
  {
    "代碼": "031J02",
    "機構名稱": "桃園市有得實驗教育機構",
    "公/私立": "私立",
    "縣市名稱": "桃園市",
    "地址": "桃園市中壢區長春一路288號",
    "電話": "03-4523566",
    "latitude": 24.9804458,
    "longitude": 121.2520425
  },
  {
    "代碼": "031J03",
    "機構名稱": "桃園市趣創者國際實驗教育機構",
    "公/私立": "私立",
    "縣市名稱": "桃園市",
    "地址": "320桃園市中壢區中山東路三段414號",
    "電話": "03-4880896",
    "latitude": 24.9653531,
    "longitude": 121.224926
  },
  {
    "代碼": "031J04",
    "機構名稱": "桃園市原來學苑實驗教育機構",
    "公/私立": "私立",
    "縣市名稱": "桃園市",
    "地址": "335桃園市大溪區三民路二段9巷9號",
    "電話": "03-3825041",
    "latitude": 24.880584,
    "longitude": 121.286962
  },
  {
    "代碼": "061J01",
    "機構名稱": "臺中市海聲華德福實驗教育機構",
    "公/私立": "私立",
    "縣市名稱": "臺中市",
    "地址": "臺中市梧棲區文雅街127巷12號",
    "電話": "04-26565711",
    "latitude": 24.2428125,
    "longitude": 120.5475969
  },
  {
    "代碼": "061J02",
    "機構名稱": "臺中市楓樹腳實驗教育機構",
    "公/私立": "私立",
    "縣市名稱": "臺中市",
    "地址": "臺中市烏日區大同九街39號",
    "電話": "04-23374425",
    "latitude": 24.1122159,
    "longitude": 120.6282368
  },
  {
    "代碼": "061J03",
    "機構名稱": "臺中市善美真華德福實驗教育機構",
    "公/私立": "私立",
    "縣市名稱": "臺中市",
    "地址": "臺中市清水區公正路50、52號、海濱路 221-8號之1",
    "電話": "04-26263111",
    "latitude": 24.2821266,
    "longitude": 120.554208
  },
  {
    "代碼": "191J01",
    "機構名稱": "臺中市道禾實驗教育機構",
    "公/私立": "私立",
    "縣市名稱": "臺中市",
    "地址": "臺中市南屯區大墩十八街19號",
    "電話": "04-22520026",
    "latitude": 24.1566495,
    "longitude": 120.6501867
  },
  {
    "代碼": "191J02",
    "機構名稱": "臺中市迦美地華德福實驗教育機構",
    "公/私立": "私立",
    "縣市名稱": "臺中市",
    "地址": "臺中市南屯區大觀路208號",
    "電話": "04-22522165",
    "latitude": 24.1451817,
    "longitude": 120.6426125
  },
  {
    "代碼": "191J03",
    "機構名稱": "臺中市澴宇蒙特梭利實驗教育機構",
    "公/私立": "私立",
    "縣市名稱": "臺中市",
    "地址": "臺中市西屯區福雅路128巷19號",
    "電話": "04-24612766",
    "latitude": 24.1852207,
    "longitude": 120.6202716
  },
  {
    "代碼": "191J05",
    "機構名稱": "臺中市秋穗實驗教育機構",
    "公/私立": "私立",
    "縣市名稱": "臺中市",
    "地址": "臺中市西區忠明南路395號",
    "電話": "04-2376-5556",
    "latitude": 24.1568539,
    "longitude": 120.6594625
  },
  {
    "代碼": "211J01",
    "機構名稱": "臺南市BANYAN國際實驗教育機構",
    "公/私立": "私立",
    "縣市名稱": "臺南市",
    "地址": "臺南市東區林森路二段79號",
    "電話": "06-2086922",
    "latitude": 22.9883299,
    "longitude": 120.2233693
  },
  {
    "代碼": "211J02",
    "機構名稱": "臺南市上華蒙特梭利實驗教育機構",
    "公/私立": "私立",
    "縣市名稱": "臺南市",
    "地址": "臺南市安南區頂安街339巷12號",
    "電話": "06-2466345",
    "latitude": 23.0439117,
    "longitude": 120.2090108
  },
  {
    "代碼": "211J03",
    "機構名稱": "臺南市中信國際實驗教育機構",
    "公/私立": "私立",
    "縣市名稱": "臺南市",
    "地址": "臺南市安南區台江大道三段600號",
    "電話": "06-2872300",
    "latitude": 23.0620825,
    "longitude": 120.1635976
  },
  {
    "代碼": "211J04",
    "機構名稱": "臺南市哈佛蒙特梭利實驗教育機構",
    "公/私立": "私立",
    "縣市名稱": "臺南市",
    "地址": "臺南市南區新興路178號",
    "電話": "06-2641213",
    "latitude": 22.9732316,
    "longitude": 120.1837936
  },
  {
    "代碼": "211J05",
    "機構名稱": "臺南市鴻仁國際漢學書院實驗教育機構",
    "公/私立": "私立",
    "縣市名稱": "臺南市",
    "地址": "臺南市北區和緯路一段2號",
    "電話": "06-2818818",
    "latitude": 23.009932,
    "longitude": 120.2133124
  },
  {
    "代碼": "211J06",
    "機構名稱": "臺南市心潔蒙特梭利實驗教育機構",
    "公/私立": "私立",
    "縣市名稱": "臺南市",
    "地址": "臺南市北區北園街87巷64號",
    "電話": "06-2740126",
    "latitude": 23.01047,
    "longitude": 120.2207964
  },
  {
    "代碼": "121J02",
    "機構名稱": "高雄市國際心教育實驗教育機構",
    "公/私立": "私立",
    "縣市名稱": "高雄市",
    "地址": "高雄市橋頭區橋南路雅歌巷1號",
    "電話": "0913-406032",
    "latitude": 22.7493505,
    "longitude": 120.3159153
  },
  {
    "代碼": "121J03",
    "機構名稱": "高雄市南海月光實驗教育機構",
    "公/私立": "私立",
    "縣市名稱": "高雄市",
    "地址": "高雄市旗山區旗文路125-8號",
    "電話": "07-3458068",
    "latitude": 22.9049933,
    "longitude": 120.4790668
  },
  {
    "代碼": "541J01",
    "機構名稱": "高雄市野人華德福實驗教育機構",
    "公/私立": "私立",
    "縣市名稱": "高雄市",
    "地址": "高雄市楠梓區大學七街2號",
    "電話": "07-3637988",
    "latitude": 22.7282872,
    "longitude": 120.2886869
  },
  {
    "代碼": "551J01",
    "機構名稱": "高雄市麗澤品格實驗教育機構",
    "公/私立": "私立",
    "縣市名稱": "高雄市",
    "地址": "高雄市三民區十全一路200號",
    "電話": "07-3118635",
    "latitude": 22.6476949,
    "longitude": 120.2996219
  },
  {
    "代碼": "551J02",
    "機構名稱": "高雄市創造蒙特梭利實驗教育機構",
    "公/私立": "私立",
    "縣市名稱": "高雄市",
    "地址": "高雄市三民區大中一路123號",
    "電話": "07-5569351",
    "latitude": 22.6757922,
    "longitude": 120.325732
  },
  {
    "代碼": "581J01",
    "機構名稱": "高雄市但以理基督書院實驗教育機構",
    "公/私立": "私立",
    "縣市名稱": "高雄市",
    "地址": "高雄市苓雅區民權一路38號",
    "電話": "07-3330708",
    "latitude": 22.6210536,
    "longitude": 120.3128578
  },
  {
    "代碼": "041J03",
    "機構名稱": "新竹縣照海華德福實驗教育機構",
    "公/私立": "私立",
    "縣市名稱": "新竹縣",
    "地址": "新竹縣新埔鎮三聖路199號",
    "電話": "03-5891023",
    "latitude": null,
    "longitude": null
  },
  {
    "代碼": "041J05",
    "機構名稱": "新竹縣恩激優實驗教育機構",
    "公/私立": "私立",
    "縣市名稱": "新竹縣",
    "地址": "​新竹縣竹北市嘉勤南路96號2-1室",
    "電話": "03-5583988",
    "latitude": 24.8188734,
    "longitude": 121.0136987
  },
  {
    "代碼": "041J06",
    "機構名稱": "新竹縣麗水華德福實驗教育機構",
    "公/私立": "私立",
    "縣市名稱": "新竹縣",
    "地址": "新竹縣寶山鄉新湖路四段90號",
    "電話": "03 576 0066",
    "latitude": 24.7230857,
    "longitude": 120.9905489
  },
  {
    "代碼": "041J07",
    "機構名稱": "新竹縣道禾實驗教育機構",
    "公/私立": "私立",
    "縣市名稱": "新竹縣",
    "地址": "新竹縣竹東鎮中興路四段589號",
    "電話": "03-6116699",
    "latitude": 24.778562,
    "longitude": 121.0441385
  },
  {
    "代碼": "041J08",
    "機構名稱": "新竹縣毅宇蒙特梭利實驗教育機構",
    "公/私立": "私立",
    "縣市名稱": "新竹縣",
    "地址": "310新竹縣竹東鎮學府東路318號2樓\n310新竹縣竹東鎮學府東路447巷7號1至4樓",
    "電話": "03-5820-650",
    "latitude": null,
    "longitude": null
  },
  {
    "代碼": "041J09",
    "機構名稱": "新竹縣康乃薾國際實驗教育機構",
    "公/私立": "私立",
    "縣市名稱": "新竹縣",
    "地址": "新竹縣竹北市隘口里5鄰隘口二路215號1樓至4樓",
    "電話": "03-667-6339",
    "latitude": null,
    "longitude": null
  },
  {
    "代碼": "041J10",
    "機構名稱": "新竹縣布朗康米紐斯實驗教育機構",
    "公/私立": "私立",
    "縣市名稱": "新竹縣",
    "地址": "新竹縣芎林鄉大華路1號2樓",
    "電話": "03-6671010",
    "latitude": 24.7789378,
    "longitude": 121.0920957
  },
  {
    "代碼": "071J01",
    "機構名稱": "彰化縣愛因斯坦實驗教育機構",
    "公/私立": "私立",
    "縣市名稱": "彰化縣",
    "地址": "彰化縣大村鄉中正東路118巷27弄3號",
    "電話": "04-7880629",
    "latitude": 23.9907251,
    "longitude": 120.5717125
  },
  {
    "代碼": "071J02",
    "機構名稱": "彰化縣雅典娜華德福實驗教育機構",
    "公/私立": "私立",
    "縣市名稱": "彰化縣",
    "地址": "彰化縣埤頭鄉文化路369號",
    "電話": "04-8888258",
    "latitude": 23.8707368,
    "longitude": 120.4814933
  },
  {
    "代碼": "071J03",
    "機構名稱": "彰化縣賽德實驗教育機構",
    "公/私立": "私立",
    "縣市名稱": "彰化縣",
    "地址": "彰化縣大村鄉中正東路118巷27弄3號",
    "電話": "04-7880629",
    "latitude": 23.9907251,
    "longitude": 120.5717125
  },
  {
    "代碼": "071J04",
    "機構名稱": "彰化縣基石華德福實驗教育機構",
    "公/私立": "私立",
    "縣市名稱": "彰化縣",
    "地址": "彰化縣北斗鎮舜苑街127巷37號",
    "電話": "04 8871278",
    "latitude": 23.8698473,
    "longitude": 120.5178132
  },
  {
    "代碼": "081J01",
    "機構名稱": "南投縣復臨實驗教育機構",
    "公/私立": "私立",
    "縣市名稱": "南投縣",
    "地址": "南投縣魚池鄉瓊文巷39號",
    "電話": "049-2899778",
    "latitude": 23.8988582,
    "longitude": 120.9369754
  },
  {
    "代碼": "081J02",
    "機構名稱": "南投縣森優實驗教育機構",
    "公/私立": "私立",
    "縣市名稱": "南投縣",
    "地址": "南投縣中寮鄉廣興村永平路53號之1",
    "電話": "049-2691721",
    "latitude": 23.8652257,
    "longitude": 120.7875972
  },
  {
    "代碼": "081J04",
    "機構名稱": "南投縣均頭實驗教育機構",
    "公/私立": "私立",
    "縣市名稱": "南投縣",
    "地址": "南投縣埔里鎮水頭路48號",
    "電話": "049-2980723",
    "latitude": 23.9446999,
    "longitude": 120.9709988
  },
  {
    "代碼": "081J05",
    "機構名稱": "南投縣親愛實驗教育機構",
    "公/私立": "私立",
    "縣市名稱": "南投縣",
    "地址": "南投縣南投市光明路7號",
    "電話": "049-2316387",
    "latitude": 23.9385694,
    "longitude": 120.6992494
  },
  {
    "代碼": "081J06",
    "機構名稱": "南投縣原聲國際學院實驗教育機構",
    "公/私立": "私立",
    "縣市名稱": "南投縣",
    "地址": "南投縣魚池鄉武登村銃櫃巷18號",
    "電話": "049-286-1763",
    "latitude": 23.8221524,
    "longitude": 120.8885273
  },
  {
    "代碼": "081J07",
    "機構名稱": "南投縣同德國際實驗教育機構",
    "公/私立": "私立",
    "縣市名稱": "南投縣",
    "地址": "南投縣草屯鎮中正路培英巷8號",
    "電話": "049-256-1556",
    "latitude": 24.0001164,
    "longitude": 120.6936224
  },
  {
    "代碼": "091J02",
    "機構名稱": "雲林縣湖山承淨書院實驗教育機構",
    "公/私立": "私立",
    "縣市名稱": "雲林縣",
    "地址": "雲林縣斗六市湖山里岩山路88號",
    "電話": "0926-796608",
    "latitude": 23.7086579,
    "longitude": 120.6054229
  },
  {
    "代碼": "141J01",
    "機構名稱": "臺東縣奇點國際實驗教育機構",
    "公/私立": "私立",
    "縣市名稱": "臺東縣",
    "地址": "950臺東縣(市)中興路四段485號",
    "電話": "089-382839#666",
    "latitude": null,
    "longitude": null
  },
  {
    "代碼": "151J01",
    "機構名稱": "花蓮縣波斯頓國際實驗教育機構",
    "公/私立": "私立",
    "縣市名稱": "花蓮縣",
    "地址": "花蓮縣花蓮市中正路108號",
    "電話": "03-8310336",
    "latitude": 23.9725676,
    "longitude": 121.6002205
  },
  {
    "代碼": "021J01",
    "機構名稱": "宜蘭縣聯合國際實驗教育機構",
    "公/私立": "私立",
    "縣市名稱": "宜蘭縣",
    "地址": "宜蘭縣壯圍鄉功勞路12-3號",
    "電話": "080 082 0000",
    "latitude": 24.7654491,
    "longitude": 121.7906271
  },
  {
    "代碼": "181J01",
    "機構名稱": "新竹市心築實驗教育機構",
    "公/私立": "私立",
    "縣市名稱": "新竹市",
    "地址": "新竹市崧嶺路181號",
    "電話": "03-522-2238#310",
    "latitude": 24.792265,
    "longitude": 120.9532926
  }
]